Store Number,Store Name,Customer Segment,Address,County,Store Longitude,Store Latitude
5245,BEST TRIP,Potential Loyalist,"1516, SE  1ST ST",POLK,-93.61379,41.57608
6303,WORLD LIQUOR & TOBACCO + VAPORS / DES MOINES,Potential Loyalist,3200 SOUTHEAST 14TH STREET,POLK,-93.59738,41.55503
2190,CENTRAL CITY 2 #1460,Champions,1460 2ND AVE,POLK,-93.61979,41.60558
2699,HY-VEE C-STORE #2 - ANKENY,Need Attention,1710 SW ORALABOR ROAD,POLK,-93.62362,41.70324
2636,HY-VEE WINE AND SPIRITS / HUBBELL,Potential Loyalist,2310 HUBBELL AVE,POLK,-93.57411,41.60444
6018,CASEY'S GENERAL STORE #2532 / ELDORA,Big Spenders,1807 EDGINGTON AVE,HARDIN,-93.10608,42.3606
2666,HY-VEE FOOD STORE #2 / STATE ANKENY,Champions,2510 SW STATE ST,POLK,-93.62173,41.70471
4829,CENTRAL CITY 2 #1501,Champions,1501 MICHIGAN AVE,POLK,-93.61378,41.60575
6006,CASEY'S GENERAL STORE #2635 / JOHNSTON,Potential Loyalist,10010 NW 62ND AVE,POLK,-93.75913,41.67288
6245,NEIGHBORHOOD LIQUOR HOUSE / ANKENY,Champions,"833 EAST 1ST STREET, SUITE 102",POLK,-93.58545,41.73189
2633,HY-VEE FOOD STORE #3 (1142) / DES MOINES,Champions,3221 SE 14TH ST,POLK,-93.5968,41.55392
2696,HY-VEE C-STORE / SE ARMY POST,Potential Loyalist,1113 SE ARMY POST RD,POLK,-93.62905,41.5265
4132,CAMANCHE FOOD PRIDE,Big Spenders,908 7TH AVE,CLINTON,-90.25735,41.78853
2648,HY-VEE #4 / WDM,Champions,555 S 51ST ST,POLK,-93.77293,41.56036
4320,FAREWAY STORES #470 / PERRY,Champions,1315 WILLIS AVE,DALLAS,-94.10303,41.83848
2614,HY-VEE #3 FOOD & DRUGSTORE / DAVENPORT,Champions,1823 E KIMBERLY RD,SCOTT,-90.55073,41.55678
4788,WALGREENS #12580 / CEDAR RAPIDS,Need Attention,324 EDGEWOOD RD NW,LINN,-91.71601,41.97501
4950,KUM & GO #514 / CEDAR RAPIDS,Big Spenders,1420 MT VERNON RD,LINN,-91.65129,41.97759
6236,WESTSIDE SPIRITS / CEDAR RAPIDS,Champions,3330 16TH AVE. SW,LINN,-91.71559,41.96359
4970,JEFF'S MARKET / WEST LIBERTY,Big Spenders,"200, E 3RD ST",MUSCATINE,-91.26158,41.56997
5736,218 FUEL EXPRESS,Champions,68 MONROE STREET,FLOYD,-92.73701,43.12253
3773,BENZ DISTRIBUTING,Champions,501 7TH AVE SE,LINN,-91.65989,41.97575
4492,CASEY'S GENERAL STORE #2773 / CEDAR RAPIDS,Champions,3625 EDGEWOOD RD SW,LINN,-91.71598,41.94232
4129,CYCLONE LIQUORS,Champions,626 LINCOLN WAY,STORY,-93.61905,42.02291
3696,WAL-MART 1723 / DES MOINES,Champions,5101 SE 14TH ST,POLK,-93.63541,41.53804
6316,BEER THIRTY CARROLL / CARROLL,Champions,430 EAST 6TH STREET,CARROLL,-94.8615,42.06419
3666,TARGET STORE T-1771 / CEDAR RAPIDS,Champions,3400 EDGEWOOD RD SW,LINN,-91.71602,41.94398
2665,HY-VEE / WAUKEE,Champions,1005 E HICKMAN RD,DALLAS,-93.85433,41.61507
5957,"LIQUOR, TOBACCO & GROCERY / DUBUQUE",Champions,1998 JACKSON ST,DUBUQUE,-90.66825,42.51147
3890,SMOKIN' JOE'S #7 TOBACCO AND LIQUOR OUTLET,Big Spenders,904  1ST AVE NW,LINN,-91.68373,41.97282
2616,HY-VEE FOOD AND DRUG / CLINTON,Champions,901 SOUTH 4TH ST,CLINTON,-90.19322,41.83653
6024,CASEY'S GENERAL STORE #1589 / GRUNDY CENTER,Big Spenders,1708 G AVE,GRUNDY,-92.78736,42.36159
3920,SMOKIN' JOE'S #11 TOBACCO AND LIQUOR OUTLET,Champions,1606 CAMANCHE AVE,CLINTON,-90.20395,41.82836
2552,HY-VEE FOOD STORE #3 (1056) / CEDAR RAPIDS,Champions,20 WILSON AVENUE WEST,LINN,-91.65857,41.95587
5663,LAKE VIEW REDEMPTION & LIQUOR STORE,Big Spenders,502 5TH ST,SAC,-95.05154,42.30774
3664,SHADE TREE LIQUORS,Champions,90 10TH ST S,WORTH,-93.21834,43.44374
4539,CASEY'S GENERAL STORE #40 / SCRANTON,Big Spenders,900 LOCUST ST,GREENE,-94.55159,42.02249
5397,CASEY'S GENERAL STORE # 2774/AMANA,Big Spenders,617 42ND AVE,IOWA,-91.87468,41.80125
4467,KUM & GO #438 / MUSCATINE,Big Spenders,1429 PARK AVE,MUSCATINE,-91.03061,41.44193
5886,BEECHER LIQUOR / DUBUQUE,Champions,1691 ASBURY RD,DUBUQUE,-90.69684,42.50069
2628,HY-VEE FOOD STORE / ELDORA,Big Spenders,1616 EDGINGTON AVE,HARDIN,-93.10374,42.3606
10096,DIVISION MART / DAVENPORT,Champions,3721 NORTH DIVISION STREET,SCOTT,-90.60069,41.55798
5010,SAC CITY FOOD PRIDE,Big Spenders,106 S 16TH ST,SAC,-95.00263,42.42243
5656,CODY MART GAS & LIQUOR,Big Spenders,1220 N CODY RD,SCOTT,-90.34437,41.6112
4001,WAL-MART 1787 / CARROLL,Champions,2014 KITTY HAWK AVE,CARROLL,-94.8935008,42.081312
3417,BIG G FOOD STORE,Champions,PO BOX 261  310 W DILLON,IOWA,-92.073,41.7907
2635,HY-VEE #4 / DAVENPORT,Champions,4064 E 53RD ST,SCOTT,-90.51377,41.57494
5070,JEFF'S MARKET / WILTON,Big Spenders,101 E 4TH ST,MUSCATINE,-91.01657,41.58874
6242,WALL TO WALL WINE AND SPIRITS / WEST DES MOINES,Champions,375 SOUTH JORDAN CREEK PARKWAY,DALLAS,-93.80947,41.56373
5857,EZ STOP II - DUBUQUE,Big Spenders,700 RHOMBERG AVENUE,DUBUQUE,-90.66344,42.51576
4250,FAREWAY STORES #882 / ELDORA,Big Spenders,1232 14TH ST,HARDIN,-93.10073,42.36105
5407,CASEY'S GENERAL STORE # 2528/ WILLIAMSBURG,Big Spenders,602 S HIGHLAND,IOWA,-92.00744,41.66066
2465,SID'S BEVERAGE SHOP,Champions,2727 DODGE ST,DUBUQUE,-90.70691,42.49199
4604,PIT STOP LIQUORS / NEWTON,Champions,"1324, 1ST AVE E",JASPER,-93.03601,41.69919
4172,SHAMROCK SPIRITS,Big Spenders,1204 WATER ST PO BOX 177,HARDIN,-93.37642,42.52046
4998,LAKE CITY FOOD CENTER,Big Spenders,820 E MAIN ST,CALHOUN,-94.72511,42.26741
4025,KARAM KAUR KHASRIYA LLC,Big Spenders,702 13TH ST,BENTON,-92.27776,41.89706
2647,HY-VEE #7 / CEDAR RAPIDS,Champions,5050 EDGEWOOD RD,LINN,-91.7014,42.03062
6119,ALLCOOL LIQUORS / WDM,Champions,5904 ASHWORTH RD,POLK,-93.78898,41.58439
4553,CASEY'S GENERAL STORE #1892 / SHEFFIELD,Big Spenders,702 E GILMAN ST,FRANKLIN,-93.20291,42.8932
6178,HY-VEE DOLLAR FRESH / MAQUOKETA,Champions,102 W. CARLISLE,JACKSON,-90.66596,42.04989
4269,TIPTON FAMILY FOODS,Champions,610 CEDAR ST,CEDAR,-91.12841,41.77177
2670,HY-VEE FOOD STORE / CORALVILLE,Champions,2004 8TH  ST,JOHNSON,-91.592,41.68238
4559,RANDY'S NEIGHBORHOOD MARKET / OSAGE,Big Spenders,633 CHASE ST,MITCHELL,-92.81154,43.2851
2678,HY-VEE FAST & FRESH / DAVENPORT,Big Spenders,3200 E KIMBERLY RD.,SCOTT,-90.52718,41.55352
4162,FAREWAY STORES #963 / CEDAR RAPIDS,Champions,4220  16TH AVE SW,LINN,-91.72671,41.96376
3907,SMOKIN' JOE'S #16 TOBACCO AND LIQUOR OUTLET,Big Spenders,1504 PARK AVE,MUSCATINE,-91.03058,41.44258
5417,CASEY'S GENERAL STORE # 2792/CEDAR RAPIDS,Big Spenders,9001 6TH STREET SW,LINN,-91.67597,41.88872
5102,WILKIE LIQUORS,Champions,724 1ST STREET NE,LINN,-91.41231,41.92012
4106,HARTIG DRUG COMPANY #3/JFK,Big Spenders,2255 JOHN F KENNEDY RD,DUBUQUE,-90.72048,42.51154
3774,EAGLE COUNTRY MARKET / DUBUQUE,Big Spenders,1800 ELM ST,DUBUQUE,-90.6658,42.51118
5687,CASEY'S GENERAL STORE #3756 / CEDAR RAPIDS,Big Spenders,4560 16TH AVE SW,LINN,-91.72846,41.96377
6269,"NEIGHBORHOOD FOOD, LIQUOR & TOBACCO / CEDAR RAPIDS",Champions,1601 6TH ST SW,LINN,-91.67711,41.96155
6199,BLIND PIG COCKTAIL BODEGA WEST DES MOINES,Big Spenders,222 1 HALF 5TH STREET VALLEY JUNCTION,POLK,-93.70913,41.57224
3912,SMOKIN' JOE'S #14 TOBACCO AND LIQUOR OUTLET,Big Spenders,225 EDGEWOOD RD. NW,LINN,-91.71601,41.9738
5949,HAWKEYE LIQUOR & TOBACCO / CEDAR RAPIDS,Champions,2000 WILEY BLVD SW STE 106,LINN,-91.72584,41.95975
2512,HY-VEE WINE AND SPIRITS #1 (1281) / IOWA CITY,Champions,1720 WATERFRONT DR,JOHNSON,-91.53043,41.6426
6331,MAIN STREET TOBACCO SHOP / MAQUOKETA,Big Spenders,113 NORTH MAIN STREET,JACKSON,-90.66551,42.06967
5716,BIG 10 MART #69,Big Spenders,2480 EAST 53RD,SCOTT,-90.49846,41.57516
5481,TOBACCO OUTLET & LIQUOR,Champions,1545 1ST AVE SE,LINN,-91.65083,41.98897
5620,CASEY'S GENERAL STORE #2874 / RICEVILLE,Big Spenders,208 W MAIN ST,HOWARD,-92.55645,43.36381
5646,IOWA SMOKE AND LIQUOR,Champions,70 KIRKWOOD COURT SW,LINN,-91.65545,41.92132
5563,CASEY'S GENERAL STORE #3082 / CARROLL,Big Spenders,510 E HWY 30,CARROLL,-94.86043,42.06403
6000,PORTERS CONVENIENCE 66 / CLINTON,Big Spenders,1512 LINCOLN WAY,CLINTON,-90.22135,41.81758
3918,SMOKIN' JOE'S #1 TOBACCO AND LIQUOR OUTLET,Big Spenders,3120 ROCKINGHAM RD,SCOTT,-90.62161,41.51004
2716,HY-VEE HAMPTON DOLLAR FRESH,Big Spenders,808 4TH ST SE,FRANKLIN,-93.20251,42.734
2527,HY-VEE FOOD STORE #5 (1151) / DES MOINES,Champions,1107 SE ARMY POST RD,POLK,-93.62878,41.5265
2671,HY-VEE  /  JEFFERSON,Champions,"106, W WASHINGTON ST",GREENE,-94.3754,42.01724
4126,SAM'S MAINSTREET MARKET / SOLON,Big Spenders,123 E MAIN ST,JOHNSON,-91.49461,41.80719
2663,HY-VEE FOOD STORE / URBANDALE,Champions,8701 DOUGLAS,POLK,-93.739,41.62934
2508,HY-VEE FOOD STORE #1 (1054) / CEDAR RAPIDS,Champions,"1843 JOHNSON AVENUE, N.W.",LINN,-91.69838,41.97449
2597,HY-VEE FOOD STORE / CHEROKEE,Champions,1300 N. SECOND,CHEROKEE,-95.55262,42.76552
5815,SUPER STOP IV - DUBUQUE,Champions,535 HILL STREET SUITE A,DUBUQUE,-90.67399,42.4968
5597,LIQUOR TOBACCO & GAS,Big Spenders,1401 CENTRAL AVE,DUBUQUE,-90.66782,42.50651
4495,CASEY'S GENERAL STORE #3055 / GRUNDY CENTER,Big Spenders,"504, G AVE",GRUNDY,-92.77044,42.36148
10102,WORLD LIQUOR AND TOBACCO PLUS VAPORS /  CHEROKEE,Big Spenders,114 SOUTH 2ND STREET,CHEROKEE,-95.55131,42.749
5739,CASEY'S GENERAL STORE #1455,Big Spenders,27470 HWY 65 SOUTH,HARDIN,-93.30968,42.30422
4806,GIRI'S LIQUOR STORE / WEST LIBERTY,Big Spenders,1006 N. COLUMBUS STREET SUITE A,MUSCATINE,-91.26061,41.57858
6092,A&S FOOD AND GAS / DAVENPORT,Big Spenders,2365 ROCKINGHAM RD,SCOTT,-90.61246,41.51459
5176,SMOKIN' JOE'S #15 TOBACCO AND LIQUOR OUTLET,Champions,455 EDGEWOOD RD NW,LINN,-91.71597,41.97805
5222,LEO1  /  CEDAR RAPIDS,Big Spenders,"1500, 1ST  AVE NE",LINN,-91.65209,41.98825
5198,RIVERSIDE LIQUOR,Champions,826 E RIVER DR,SCOTT,-90.56172,41.52491
5956,BP FUEL / DUBUQUE,Champions,1450 LORAS BLVD,DUBUQUE,-90.68726,42.50074
2200,SAC LIQUOR STORE,Champions,619 E MAIN ST,SAC,-94.97402,42.42133
5909,EZ STOP 1 / DUBUQUE,Big Spenders,1101 RHOMBERG AVE,DUBUQUE,-90.66029,42.51948
4962,HILLTOP GROCERY,Champions,1312 HARRISON ST,SCOTT,-90.57723,41.53338
4911,CASEY'S GENERAL STORE #1061 / PRINCETON,Big Spenders,500 HWY 67 N,SCOTT,-90.34095,41.67364
4566,KUM & GO #508 / CEDAR RAPIDS,Big Spenders,30 FOUR OAKS DR SW,LINN,-91.65769,41.92305
5593,GRANDVIEW MART,Big Spenders,714 GRANDVIEW AVE,MUSCATINE,-91.06337,41.40905
5749,CASEY'S GENERAL STORE #3025 / CARROLL,Big Spenders,613 US HWY 30 W,CARROLL,-94.87441,42.06853
5393,CASEY'S GENERAL STORE # 1799/ OSAGE,Need Attention,309 MAIN ST.,MITCHELL,-92.81769,43.28404
10035,LIQUOR TOBACCO & VAPE / CLINTON,Big Spenders,122 SOUTH 2ND STREET,CLINTON,-90.18828,41.84534
2561,HY-VEE FOOD STORE (1148) / FLEUR / DSM,Champions,4605 FLEUR DRIVE,POLK,-93.64495,41.54275
4284,FAREWAY STORES #559 / IOWA FALLS,Big Spenders,500 IOWA ST,HARDIN,-93.26316,42.52233
3647,WAL-MART 2889 / CLINTON,Champions,2715 SOUTH 25TH ST,CLINTON,-90.24443,41.8184
10024,HY-VEE FAST AND FRESH #2 (7591) / WEST DES MOINES,Big Spenders,9150 SOUTHEAST UNIVERSITY AVENUE,POLK,-93.83246,41.60043
5436,SMOKIN' JOE'S #8 TOBACCO AND LIQUOR OUTLET,Big Spenders,902 W. KIMBERLY RD STE 55-56,SCOTT,-90.57278,41.56035
5824,CASEY'S GENERAL STORE #1695 / SOLON,Big Spenders,203 S MARKET ST,JOHNSON,-91.49296,41.80607
5326,ALS LIQUOR,Champions,215 W. MILWAUKEE AVE,BUENA VISTA,-95.20241,42.64746
5116,NEW STAR MART  /  NEWTON,Need Attention,702 1ST AVE E,WEBSTER,-93.04541,41.69962
2535,HY-VEE FOOD STORE #1 (1887) / WDM,Champions,1700 VALLEY WEST DR.,POLK,-93.752,41.59776
6229,BEER THIRTY STORM LAKE / STORM LAKE,Champions,208 E MILWAUKEE,BUENA VISTA,-95.19911,42.64747
5888,BIG 10 MART #62 / BETTENDORF,Big Spenders,999 MIDDLE RD,SCOTT,-90.51892,41.54003
2806,OSCO #1118 / CLINTON,Champions,1307 N SECOND,CLINTON,-90.18489,41.85867
5061,CASEY'S GENERAL STORE #3382 / CEDAR,Big Spenders,"560, 33RD AVE SW",LINN,-91.67548,41.94306
3814,COSTCO WHOLESALE #788 / WDM,Champions,7205 MILLS CIVIC PKWY,DALLAS,-93.80443,41.56154
2840,CVS PHARMACY #8633 / BETTENDORF,Big Spenders,2002 SPRUCE HILLS DRIVE,SCOTT,-90.50386,41.55021
6125,GATEWAY MART / CLINTON,Champions,1930 ROOSEVELT ST,CLINTON,-90.18057,41.86701
4490,CASEY'S GENERAL STORE #2766 / CEDAR RAPIDS,Big Spenders,380 33RD AVE SW,LINN,-91.67221,41.94497
5356,CASEY'S GENERAL STORE # 3561/ CEDAR RAPIDS,Big Spenders,1532 ELLIS BLVD NW,LINN,-91.68214,41.98852
5834,CASEY'S GENERAL STORE #1417 / IOWA FALLS,Big Spenders,1223 OAK ST,HARDIN,-93.26327,42.52773
4967,JEFF'S MARKET / BLUE GRASS,Champions,"102, W MAYNE ST",SCOTT,-90.7661,41.50912
5902,GM MINIMART / MUSCATINE,Big Spenders,2307 LUCAS ST,MUSCATINE,-91.0714,41.42288
2509,HY-VEE / DRUGTOWN #1 (7020) / CEDAR RAPIDS,Champions,1520 6TH ST SW,LINN,-91.67707,41.96233
5533,FAREWAY STORES #183 / FLEUR,Champions,4313 FLEUR DR,POLK,-93.64493,41.54501
5781,CASEY'S GENERAL STORE #2898 / CLARENCE,Big Spenders,93 LOMBARD ST,CEDAR,-91.06606,41.88873
4547,FAREWAY STORES #902 / HAMPTON,Big Spenders,309 CENTRAL AVE WEST,FRANKLIN,-93.21165,42.74173
6332,KWIK STAR #1107 / CEDAR RAPIDS,Big Spenders,1900 16TH AVE SW,LINN,-91.69924,41.96255
4116,LAKE VIEW FOODS,Big Spenders,223 MAIN ST,SAC,-95.05168,42.30522
6151,UNIVERSITY LIQUORS / WDM,Big Spenders,9250 UNIVERSITY AVE UNIT 115,POLK,-93.834244,41.599769
5441,LIQUOR ON THE CORNER,Champions,300 EAST MAIN,CHEROKEE,-95.54647,42.74958
2573,HY-VEE FOOD STORE / MUSCATINE,Champions,2400 2ND AVE,MUSCATINE,-91.03549,41.45015
5118,KWIK STOP #82  /  PEOSTA,Need Attention,"185, PEOSTA ST",DUBUQUE,-90.8504,42.44283
5340,KUM & GO #532/ WEST DSM,Big Spenders,5901 MILLS CIVIC PKWY #2000,POLK,-93.78501,41.55918
5734,FAREWAY STORES #193 / TIFFIN,Champions,500 CROELL AVENUE,JOHNSON,-91.65724,41.70784
5799,CASEY'S GENERAL STORE #2472 / NICHOLS,Big Spenders,1334 HWY 22,MUSCATINE,-91.30382,41.48112
3934,WAL-MART 1509 / MAQUOKETA,Champions,103 E CARLISLE,JACKSON,-90.66292,42.04869
3618,WAL-MART 2716 / CEDAR RAPIDS,Champions,3601 29TH AVE SW,LINN,-91.71824,41.94922
6203,WORLD LIQUOR & TOBACCO + VAPORS / WAUKEE,Need Attention,23 NE CAREFREE LANE,DALLAS,-93.86911,41.61605
3841,HARTIG DRUG COMPANY #2 / LOCUST,Big Spenders,157 LOCUST ST,DUBUQUE,-90.66545,42.4953
5969,CASEY'S GENERAL STORE #3288 / BLUE GRASS,Big Spenders,301 E. MAYNE ST,SCOTT,-90.76281,41.50912
2576,HY-VEE WINE AND SPIRITS / STORM LAKE,Champions,1250 N LAKE ST,BUENA VISTA,-80.34522,42.02256
6237,SMOKIN' JOE'S TOBACCO & LIQUOR OUTLET #03 / CLINTON,Big Spenders,902 NORTH 2ND STREET,CLINTON,-90.18652,41.85358
5496,DHAKALS LLC,Champions,3108 W CENTRAL PARK AVE,SCOTT,-90.62028,41.54542
6219,CASEY'S #4025 / MUSCATINE,Big Spenders,4701 HWY 61,MUSCATINE,-91.12142,41.3714
5682,AMBYSURE INC / CLINTON,Champions,1641 S BLUFF BLVD,CLINTON,-90.22439,41.83363
5708,BROTHERS MARKET / WILLIAMSBURG,Big Spenders,103 W. WALNUT,IOWA,-92.00797,41.66282
3749,WAL-MART 1526 / STORM LAKE,Champions,1831 LAKE AVE NW,BUENA VISTA,-95.20073,42.66413
6233,QUICK STOP #1430 / CEDAR RAPIDS,Champions,1430 1ST AVE NE,LINN,-91.65267,41.98792
4638,GD XPRESS / DAVENPORT,Champions,4607 N PINE ST,SCOTT,-90.61021,41.5675
5138,KELLOGG COUNTRY STORE,Big Spenders,"103, BLAIR ST",JASPER,-92.9031,41.71438
3563,WAL-MART 0559 / MUSCATINE,Champions,3003 NORTH HIGHWAY 61,MUSCATINE,-91.02383,41.45632
5570,CASEY'S GENERAL STORE #2776 / CEDAR RAPIDS,Big Spenders,701 ELLIS BLVD NW,LINN,-91.682,41.97947
4677,COSTCO WHOLESALE #1111 / CORALVILLE,Champions,2900 HEARTLAND DR,JOHNSON,-91.61644,41.69696
5553,CASEY'S GENERAL STORE #2222 / CLINTON,Big Spenders,1107 13TH AVE N,CLINTON,-90.2113,41.85933
5776,CASEY'S GENERAL STORE #2890 / WEST LIBERTY,Need Attention,402 W 15TH ST,MUSCATINE,-91.26631,41.58325
4230,FAREWAY STORES #106 / CLIVE,Potential Loyalist,10151 UNIVERSITY AVE,POLK,-93.75686,41.60044
5555,SUB EXPRESS & GAS,Big Spenders,4307 W LOCUST ST,SCOTT,-90.63733,41.53816
4157,FAREWAY STORES #993 / NORTH LIBERTY,Champions,615 WESTWOOD DR   P.O BOX 96,JOHNSON,-91.60865,41.74111
4617,LICKETY LIQUOR,Champions,2501 HUBBELL AVE,POLK,-93.5702,41.60763
2662,HY-VEE WINE & SPIRITS / MUSCATINE,Champions,"522 MULBERRY, SUITE A",MUSCATINE,-91.04435,41.42662
4710,WALGREENS #09708 / DUBUQUE,Need Attention,55 JOHN F KENNEDY RD,DUBUQUE,-90.71528,42.49327
5606,SA TOBACCO LIQUOR MART / CLINTON,Big Spenders,320 N 4TH ST,CLINTON,-90.19323,41.84832
5542,CASEY'S GENERAL STORE #2578 / MAQUOKETA,Need Attention,801 E PLATT,JACKSON,-90.65661,42.06919
4915,CASEY'S GENERAL STORE #2429 / BETTENDORF,Big Spenders,"3902, STATE ST",SCOTT,-90.47859,41.53062
4068,SA PETRO MART,Big Spenders,136  1ST ST,POLK,-93.70333,41.57076
5092,KUM & GO #3035 / WEST DES MOINES,Champions,7265 VISTA DR,POLK,-93.80753,41.58907
3650,"SPIRITS, STOGIES AND STUFF",Champions,118 SOUTH MAIN ST.,IDA,-95.54476,42.48869
4663,CASEY'S GENERAL STORE #3077 / PEOSTA,Big Spenders,236 PEOSTA ST,DUBUQUE,-90.85038,42.4441
4310,FAREWAY STORES #502 / CHEROKEE,Champions,205 WEST BLUFF ST,CHEROKEE,-95.55188,42.7551
6327,PRIMESTAR / MARENGO,Big Spenders,395 WESTERN AVENUE,IOWA,-92.07436,41.79301
2630,HY-VEE DRUGSTORE #2 / WDM,Champions,1010  60TH ST,POLK,-93.79055,41.58492
4051,FAREWAY STORES #639 / MAQUOKETA,Champions,110 WESTGATE DR,JACKSON,-90.68062,42.06742
3959,HARTIG DRUG COMPANY #8/UNIVERSITY,Big Spenders,1600 UNIVERSITY AVE,DUBUQUE,-90.68744,42.49841
5307,FAREWAY STORES #167/JOHNSTON,Champions,6005 MERLE HAY ROAD,POLK,-93.69769,41.67024
10065,MADELLA WINE AND SPIRITS / BETTENDORF,Champions,3263 MOENCKS COURT UNIT 3265,SCOTT,-90.44919,41.55596
5594,DEPOT NORWAY,Big Spenders,117 E RAILROAD ST,BENTON,-91.92114,41.90257
4158,FAREWAY STORES #409 / CARROLL,Champions,709 MONTEREY DR,CARROLL,-94.85063,42.06565
5064,CASEY'S GENERAL STORE #2777 / FAIRFA,Big Spenders,"65, WILLIAMS BLVD",LINN,-91.77904,41.92916
3776,WAL-MART 5115 / DAVENPORT,Champions,3101 WEST KIMBERLY RD,SCOTT,-90.6227,41.56015
6067,FAST AVE ONE STOP / MUSCATINE,Big Spenders,2111 PARK AVE,MUSCATINE,-91.0303,41.44704
5482,IOWA MINI MART,Champions,234 W 3RD ST,SCOTT,-90.57658,41.52245
4163,FAREWAY STORES #461 / STORM LAKE,Big Spenders,731 SENECA ST,BUENA VISTA,-95.1969,42.64677
4518,CASEY'S GENERAL STORE #2824 / WDM,Big Spenders,6630 MILLS CIVIC PARKWAY,POLK,-93.79872,41.56183
4137,FAREWAY STORES #989 / WAUKEE,Big Spenders,200 SE LAUREL ST,DALLAS,-93.86911,41.61403
4694,RINA MART LLC / DAVENPORT,Big Spenders,3815 WEST KIMBERLY ROAD,SCOTT,-90.63136,41.5617
5226,KC BROTHERS,Champions,214 MYRTLE ST,SCOTT,-90.58918,41.52172
5813,CASEY'S GENERAL STORE #2791 / CEDAR RAPIDS,Big Spenders,9125 ATLANTIC DR SW,LINN,-91.67931,41.89141
3806,TARGET STORE T-1901 / WDM,Champions,5405 MILLS CIVIC PKWY,POLK,-93.77914,41.55923
4956,THE COOLER,Big Spenders,"4920, JOHNSON AVE NW",LINN,-91.7343,41.96805
4552,CASEY'S GENERAL STORE #2493 / BUFFALO,Big Spenders,222 W FRONT ST,SCOTT,-90.71851,41.45595
4562,CASEY'S GENERAL STORE #2989 / MECHANICSVILLE,Big Spenders,206 SHORT ST,CEDAR,-91.25786,41.90312
2626,HY-VEE DRUGSTORE / UNIVERSITY / DSM,Champions,4100 UNIVERSITY AVE,POLK,-93.75979,41.60044
5814,EICHMAN ENTERPRISES INC / SAGEVILLE,Big Spenders,11941 HWY 52 N,DUBUQUE,-90.72074,42.56616
4594,QUIK TRIP #554 / SW 63RD DM,Big Spenders,901 SW 63RD ST,POLK,-93.70255,41.56986
5354,KIMMES WALL LAKE,Big Spenders,129 CENTER STREET,SAC,-95.09061,42.27132
5735,SUPER SAVER LIQUOR -MUSCATINE,Big Spenders,1510 A ISETT AVENUE,MUSCATINE,-91.04356,41.43895
2568,HY-VEE FOOD STORE #4 / CEDAR RAPIDS,Big Spenders,1556 1ST AVE NE,LINN,-91.65094,41.98891
5617,CASEY'S GENERAL STORE #2513 / NASHUA,Big Spenders,100 AMHERST BLVD,CHICKASAW,-92.54574,42.95356
5444,DECORAH MART / MARSHALLTOWN,Champions,11 N 3RD AVE,MARSHALL,-92.90803,42.05011
5399,CASEY'S GENERAL STORE # 1876/MANLY,Big Spenders,505 HWY 65 S,WORTH,-93.21094,43.28341
5383,CASEY'S GENERAL STORE # 1753/ NORTHWOOD,Big Spenders,101 8TH ST. N,WORTH,-93.2209,43.44547
5692,LOCUST MART / DAVENPORT,Big Spenders,11423 160TH ST,SCOTT,-90.6803,41.53819
6059,CASEY'S GENERAL STORE #1793 / IOWA FALLS,Big Spenders,1801 WASHINGTON AVE,HARDIN,-93.27964,42.51967
4070,GRIEDER BEVERAGE DEPOT,Champions,708  13TH ST,BENTON,-92.27723,41.89707
5795,CASEY'S GENERAL STORE #61 / WILTON,Big Spenders,624 W 5TH ST,MUSCATINE,-91.02618,41.59003
5404,THE DEPOT OXFORD LLC,Big Spenders,220 N AUGUSTA AVE,JOHNSON,-91.79066,41.72465
5873,WEST D LIQUORS,Champions,5014 EP TRUE PKWY,POLK,-93.77234,41.57175
5108,TOBACCO 4 LESS / STATE ST,Need Attention,1032 STATE ST,SCOTT,-90.51827,41.52504
5621,SUN MART,Big Spenders,2920 WEST LOCUST STREET,SCOTT,-90.61995,41.53817
4013,WAL-MART 0841 / TIPTON,Big Spenders,1126 HIGHWAY 38 NORTH,CEDAR,-91.12746,41.78643
5532,THE FOOD CENTER,Big Spenders,215 W 4TH ST,MITCHELL,-92.92087,43.37848
10070,LE CLAIRE GROCERY STORE / LE CLAIRE,Big Spenders,536 NORTH CODY ROAD,SCOTT,-90.34381,41.60326
5206,BROTHERS MARKET  /  GRUNDY CENTER,Big Spenders,1400 G  AVE,GRUNDY,-92.78209,42.36156
10058,WESTSIDE GROCERY / DAVENPORT,Big Spenders,1802 WEST 7TH STREET,SCOTT,-90.60132,41.52677
6290,S & S MEATS AND SPIRITS / OSAGE,Big Spenders,508 MAIN STREET,MITCHELL,-92.81398,43.28406
4766,KEYWEST CONOCO / DUBUQUE,Need Attention,2150 TWIN VALLEY DR,DUBUQUE,-90.67433,42.45981
5916,ANOTHER ROUND / DEWITT,Champions,622 S 6TH AVE,CLINTON,-90.53908,41.80942
10045,COUNTRY FOODS / BELLE PLAINE,Big Spenders,1206 7TH AVE.,BENTON,-92.27826,41.89664
6061,BROOKLYN GROCERY,Need Attention,122 E FRONT ST,POWESHIEK,-92.44518,41.72856
5403,GOLDEN MART,Big Spenders,1026 W RIVER DRIVE,SCOTT,-90.58837,41.52016
5794,CASEY'S GENERAL STORE #1922 / WALCOTT,Big Spenders,780 N MAIN ST,SCOTT,-90.77458,41.59208
5819,KIMMES COUNTRY STORE ALTA 05 #303,Need Attention,303 E HWY 7,BUENA VISTA,-95.302,42.67533
4747,WALGREENS #11709 / DAVENPORT,Need Attention,1805 BRADY ST,SCOTT,-90.57403,41.5378
5071,JEFF'S MARKET / DURANT,Big Spenders,408 6TH AVE,CEDAR,-90.91174,41.60058
5588,CASEY'S GENERAL STORE #2533 / MARENGO,Need Attention,2157 HWY 6 TRAIL,IOWA,-92.07329,41.78953
5846,ROCKINGHAM LIQUOR - DAVENPORT,Champions,2423 ROCKINGHAM ROAD,SCOTT,-90.61345,41.51414
2698,HY-VEE GAS #4 - WDM,Need Attention,665 SOUTH 51ST STREET,POLK,-93.77283,41.55982
2521,HY-VEE FOOD AND DRUG (1888) / GRAND / WDM,Champions,1990 GRAND AVENUE,POLK,-93.7314,41.57151
5190,GUPPY'S ON THE GO / WALFORD,Need Attention,200 HWY 151 E,LINN,-91.83344,41.87841
10072,EXPRESS MART / MUSCATINE,Big Spenders,4804 US 61,MUSCATINE,-91.12141,41.37156
6212,CROSSROADS / HAMPTON,Big Spenders,4 4TH STREET SOUTHEAST,FRANKLIN,-93.20248,42.74154
5159,KIMMES ROCKWELL CITY COUNTRY STORE #,Big Spenders,"730, HIGH ST",CALHOUN,-94.63884,42.39881
3805,WASHINGTON STREET MINI MART,Champions,1601 WASHINGTON ST,SCOTT,-90.59627,41.53595
4184,FAREWAY STORES #998 / MUSCATINE,Big Spenders,2100 CEDAR PLAZA DR,MUSCATINE,-91.08189,41.43537
4719,WALGREENS #06677 / WEST DES MOINES,Need Attention,4900 MILLS CIVIC PKWY,POLK,-93.77001,41.55913
6141,KJ'S CONVENIENCE & DELI / MAQUOKETA,Big Spenders,916 WEST PLATT,JACKSON,-90.67721,42.06901
3488,BENDER'S FOODS,Champions,400 S SECOND,JACKSON,-90.42298,42.25545
5359,FAREWAY STORES #168/ PEOSTA,Champions,8400 NICC DRIVE,DUBUQUE,-90.84849,42.44482
5329,DIVA & TEJ GAS & FOOD,Big Spenders,2293 HWY 30,CLINTON,-90.64632,41.82803
2683,HY-VEE FAST & FRESH / WDM,Big Spenders,425 S JORDAN CREEK PKWY,POLK,-93.80946,41.56264
5998,WILTON EXPRESS,Big Spenders,1300 NICOLAUS DR,IOWA,-91.03476,41.58997
3738,HARTIG DRUG COMPANY #4 / DUBUQUE,Big Spenders,2225 CENTRAL AVE,DUBUQUE,-90.6715,42.51383
5804,CASEY'S GENERAL STORE #2030 / CLINTON,Big Spenders,1336 CAMANCHE AVE,CLINTON,-90.20001,41.83132
6139,SUPER SAVER TOBACCO & LIQUOR / DAVENPORT,Big Spenders,1610 ROCKINGHAM RD,SCOTT,-90.59935,41.52026
4371,KUM & GO #50 / WEST DES MOINES,Big Spenders,745 S 51ST ST,POLK,-93.77348,41.55849
4540,CASEY'S GENERAL STORE #2915 / BELLEVUE,Big Spenders,1104 N RIVERVIEW ST,JACKSON,-90.42779,42.26836
4110,"BROTHERS MARKET, INC.",Big Spenders,706 HIGHWAY 57,BUTLER,-92.7852,42.57036
6072,PEARL CITY TOBACCO & LIQUOR OUTLET / MUSCATINE,Big Spenders,200 GREEN ST,MUSCATINE,-91.05788,41.41386
6046,CASEY'S GENERAL STORE #2150 / WDM,Big Spenders,2125 GRAND AVE,POLK,-93.734597,41.56575
6032,CASEY'S GENERAL STORE #1167 / HOLSTEIN,Need Attention,714 S MAIN ST,IDA,-95.54479,42.48038
5618,CASEY'S GENERAL STORE #1446 / LISBON,Big Spenders,150 E. BUSINESS 30,LINN,-91.34083,41.91831
5420,CASEY'S GENERAL STORE # 2212/ CEDAR RAPIDS,Big Spenders,130 41ST AVE. DR. SW,LINN,-91.65631,41.93769
5347,KUM & GO #1097 / 50TH WDM,Big Spenders,220 50TH ST,POLK,-93.7709,41.57231
4613,SPARKY'S ONE STOP / CARROLL,Big Spenders,402 E 6TH ST,CARROLL,-94.86262,42.06448
3822,THE SECRET CELLAR,Big Spenders,1205 CURTIS BR RD NE,JOHNSON,-91.64609,41.84749
4949,RIVER DRIVE SMOKE SHOP,Big Spenders,"828, W RIVER DR",SCOTT,-90.58552,41.52026
4480,CIRCLE K #4706602 / CLINTON,Big Spenders,1530 NORTH 2ND ST,CLINTON,-90.18389,41.86148
6226,ROCK C LIQUOR & WINE & TOBACCO / IOWA FALLS,Big Spenders,418 ROCKSYLVANIA AVENUE,HARDIN,-93.26263,42.52143
5878,HOMETOWN FOODS - HUBBARD,Big Spenders,210 E MAPLE ST,HARDIN,-93.29845,42.30554
4204,FAREWAY STORES #025 / CLINTON,Big Spenders,1350 11TH ST NW,CLINTON,-90.21136,41.86045
4190,FAREWAY STORES #888 / JEFFERSON,Champions,1207 N ELM ST,GREENE,-94.37766,42.02668
4856,BROTHERS MARKET / LISBON,Big Spenders,930 COMMERCIAL ST,LINN,-91.40113,41.91865
5945,CASEY'S GENERAL STORE #3899 / CEDAR RAPIDS,Big Spenders,235 EDGEWOOD RD NW,LINN,-91.71601,41.97423
4569,CAR-GO-EXPRESS / SUTHERLAND,Big Spenders,202 WEST SOUTHERN ST,O'BRIEN,-95.4989,42.96803
2554,HY-VEE FOOD STORE #1 (1105) / DAVENPORT,Big Spenders,3019 ROCKINGHAM ROAD,SCOTT,-90.62058,41.5106
9037,"GREEN FROG DISTILLERY, LLC (ET)",Need Attention,3345 270TH AVE,LEE,-91.40014,40.4728
5725,EXPRESS LANE GAS & FOOD MART #79,Big Spenders,17948 GREAT RIVER RD,SCOTT,-90.42779,41.56774
4306,NORTHSIDE ONE STOP / HAMPTON,Need Attention,1208  4TH ST NE,FRANKLIN,-93.20245,42.75304
3695,MRS. B'S LIQUOR,Big Spenders,623 S MARION ST,PLYMOUTH,-95.97703,42.80888
10099,MILLS GROCERY AND LIQUOR / WEST DES MOINES,Big Spenders,6630 MILLS CIVIC PKWY,POLK,-93.79872,41.56183
6225,DAY BREAK / WHEATLAND,Big Spenders,102 US HIGHWAY 30,CLINTON,-90.84146,41.82904
4131,FAREWAY STORES #933 / URBANDALE,Champions,8450 MEREDITH DR,POLK,-93.73435,41.64385
5999,CASEY'S GENERAL STORE #2771 / CEDAR RAPIDS,Big Spenders,501 6TH STREET SW,LINN,-91.6771,41.97041
9039,FOUNDRY DISTILLING COMPANY (ET),Need Attention,111 SOUTH 11TH ST. STE 100,POLK,-93.71804,41.56855
4379,KUM & GO #2091 / ASHWORTH / WDM,Big Spenders,5969 ASHWORTH RD,POLK,-93.78997,41.58437
5667,STANWOOD FOOD MART LLC,Need Attention,1118 HWY 30,CEDAR,-91.16087,41.88847
5147,VICTOR'S MARKET,Need Attention,1001 3RD STREET,POWESHIEK,-92.30126,41.73066
5369,"BORMANNS NEIGHBORHOOD PITSTOP, LLC",Big Spenders,802 S RIVERVIEW ST,JACKSON,-90.4206,42.25282
5670,JONESY'S STOP N SHOP,Big Spenders,104 N 1ST ST,CERRO GORDO,-93.19198,42.98552
6262,"FAREWAY STORES, INC. #222 / ROCKWELL CITY",Big Spenders,339 EAST HIGH STREET,CALHOUN,-94.62577,42.39885
5660,NORTH SIDE LIQUOR & TOBACCO / DUBUQUE,Champions,2013 CENTRAL AVE,DUBUQUE,-90.67013,42.5116
5173,AUDUBON FOOD LAND,Big Spenders,104 MARKET ST,AUDUBON,-94.93637,41.7232
4006,LARCHWOOD OFFSALE,Big Spenders,913 BROWN ST PO BOX 326,LYON,-96.43534,43.45382
2604,HY-VEE WINE AND SPIRITS / LE MARS,Champions,1201 12TH AVE SW,PLYMOUTH,-96.18338,42.77805
4980,PRONTO BP,Big Spenders,7305 LAPORTE RD.,BLACK HAWK,-92.26465,42.40909
5514,JOHNCY'S LIQUOR STORE,Champions,585 HWY 965 STE D & E,JOHNSON,-91.60764,41.73807
3820,"CHARLIE'S WINE AND SPIRITS,",Champions,507 W 19TH ST,WOODBURY,-96.42021,42.51054
5362,CROSSROADS WINE & SPIRITS LLC,Champions,117 IOWA AVE,HARRISON,-95.60229,41.85442
4229,FAREWAY STORES #790 / HARLAN,Champions,1910 23RD STREET,SHELBY,-95.33994,41.65119
10005,THE CROWN LIQUOR / IOWA CITY,Big Spenders,324 EAST WASHINGTON STREET,JOHNSON,-91.5306,41.66006
5526,RANDALL'S STOP N SHOP,Champions,320 5TH ST,BLACK HAWK,-92.45478,42.40654
2643,HY-VEE WINE AND SPIRITS / WATERLOO,Champions,2126 KIMBALL AVE,BLACK HAWK,-92.35698,42.47029
2650,HY-VEE WINE AND SPIRITS / HARLAN,Champions,1808 23RD ST,SHELBY,-95.33989,41.65056
4427,KUM & GO #507 / NORTH LIBERTY,Big Spenders,610 N KANSAS AVE,JOHNSON,-91.63696,41.75335
3717,THE LIQUOR STOP / SUMNER,Big Spenders,201 WEST 1ST STREET,BREMER,-92.09934,42.84746
4260,FAREWAY STORES #699 / OSCEOLA,Champions,215 S MAIN ST,CLARKE,-93.76567,41.03257
2579,HY-VEE FOOD STORE / GRINNELL,Champions,320 WEST STREET SOUTH,POWESHIEK,-92.72735,41.72776
5720,CASEY'S GENERAL STORE #1921- ACKLEY,Big Spenders,512 SHERMAN AVENUE,HARDIN,-93.05521,42.55673
5540,CASEY'S GENERAL STORE #2447 / SERGEANT BLUFF,Big Spenders,111 GAUL DR,WOODBURY,-96.35222,42.39857
4185,FAREWAY STORES #737 / GRINNELL,Champions,727 WEST STREET,POWESHIEK,-92.72735,41.74124
5642,WASPY'S TRUCK STOP / AUDUBON,Big Spenders,2079 HWY 71,AUDUBON,-94.92525,41.70567
5351,DOWNTOWN LIQUOR,Champions,1203 5TH ST.,WOODBURY,-96.39468,42.49535
4456,KUM & GO #53 / IOWA CITY,Big Spenders,955 MORMON TREK BLVD,JOHNSON,-91.57409,41.64996
5643,CONOCO / LE GRAND,Big Spenders,806 W MAIN ST,MARSHALL,-92.78466,42.00667
3881,7 RAYOS LIQUOR STORE,Champions,120 E MAIN ST / MARSHALLTOWN,MARSHALL,-92.91042,42.04914
2544,HY-VEE FOOD STORE (1403) / MARSHALLTOWN,Champions,802 SOUTH CENTER,MARSHALL,-92.91279,42.03909
4203,LIQUOR AND TOBACCO OUTLET /,Champions,620 W BREMER AVE,BREMER,-92.47887,42.72571
5460,SMOKIN JOE'S # 6 TOBACCO AND LIQUOR OUTLET,Need Attention,2411 2ND ST STE 4,JOHNSON,-91.59964,41.68371
2578,HY-VEE / CHARLES CITY,Champions,901 KELLY ST,FLOYD,-92.67553,43.06702
4149,FAREWAY STORES #015 / DENISON,Big Spenders,609 ARROWHEAD DR,CRAWFORD,-95.3721,42.02421
5797,CASEY'S GENERAL STORE #1649 / WAVERLY,Big Spenders,1312 W BREMER AVE,BREMER,-92.4868,42.72565
4703,WALGREENS #00910 / SIOUX CITY,Big Spenders,100 PIERCE ST,WOODBURY,-96.40488,42.49085
3731,WAL-MART 1241 / DAVENPORT,Champions,5811 ELMORE AVE,SCOTT,-90.52905,41.58027
6173,MINI-MART / INDEPENDENCE,Champions,709 1ST STREET WEST,BUCHANAN,-91.90183,42.46863
6319,SERGEANT BLUFF PUMP 'N PAK / SERGEANT BLUFF,Big Spenders,200 1ST STREET,WOODBURY,-96.36287,42.40031
5196,THE DEPOT CORALVILLE,Big Spenders,100 E  OAKDALE BLVD,JOHNSON,-91.56195,41.70146
2549,HY-VEE FOOD STORE (1271) / INDIANOLA,Champions,910 N JEFFERSON,WARREN,-93.55836,41.36854
2637,HY-VEE #5 / DAVENPORT,Champions,2351 W LOCUST,SCOTT,-90.61251,41.53819
3540,SUPER TARGET T-0533 / DAVENPORT,Champions,5225 ELMORE AVE,SCOTT,-90.52823,41.57189
3723,J D SPIRITS LIQUOR,Champions,1023  9TH ST,MONONA,-96.09589,42.02584
5054,CORK 'N BOTTLE / MANCHESTER,Champions,900 E MAIN ST,DELAWARE,-91.44505,42.48407
6150,THE DEPOT GILMAN,Need Attention,102 S. ELM ST.,MARSHALL,-92.78577,41.87961
6035,BOOTLEGGING BARZINIS,Champions,412 FIRST AVE,JOHNSON,-91.56558,41.67306
4156,FAREWAY STORES #412 / OELWEIN,Champions,102  2ND AVE SE,FAYETTE,-91.9105,42.67686
5800,BREW GAS COFFEE WINE SPIRITS,Big Spenders,2026 RIVERSIDE BLVD,WOODBURY,-96.47455,42.51497
4189,FAREWAY STORES #594 / MANCHESTER,Champions,109 EAST MARION ST,DELAWARE,-91.45723,42.48215
4321,FAREWAY STORES #501 / CHARLES CITY,Big Spenders,210 11TH STREET,FLOYD,-92.67443,43.05269
6344,HELLO MART LLC / SIOUX CITY,Champions,4218 MORNINGSIDE AVENUE,WOODBURY,-96.35286,42.47065
4196,FAREWAY STORES #987 / DAVENPORT,Champions,1635 WEST 53RD ST,SCOTT,-90.59855,41.57451
6002,CASEY'S GENERAL STORE #2597 / SLOAN,Big Spenders,104 BUCKLEY ST,WOODBURY,-96.22242,42.22901
5421,YESWAY # 1009/ HARLAN,Big Spenders,618 DURANT STREET,SHELBY,-95.3186,41.65679
4148,FAREWAY STORES #479 / INDEPENDENCE,Champions,1400 3RD AVE SE,BUCHANAN,-91.89032,42.45576
2603,HY-VEE WINE AND SPIRITS / BETTENDORF,Champions,2890 DEVILS GLEN ROAD,SCOTT,-90.48373,41.55236
5541,CASEY'S GENERAL STORE #2550 / OSCEOLA,Big Spenders,1706 JEFFREY'S DR. PO BOX 466,CLARKE,-93.78874,41.02763
10003,TOP SHELF LIQUOR / IOWA CITY,Champions,412 HIGHWAY 1,JOHNSON,-77.31187,35.96278
5151,BREW IDA GROVE,Champions,"500, HWY 175",IDA,-95.46725,42.35005
6268,SUPER MART / OELWEIN,Champions,701 SOUTH FREDERICK AVENUE,FAYETTE,-91.91348,42.66912
5343,FROHLICH'S SUPER VALU,Big Spenders,403 MAIN ST.,CARROLL,-94.67628,41.87086
6148,BEER ON FLOYD / SIOUX CITY,Champions,3132 FLOYD BLVD,WOODBURY,-96.37095,42.53325
5181,CASEY'S GENERAL STORE #3434  /  DENV,Big Spenders,"1101, JEFFERSON ST",BREMER,-92.3361,42.66591
6136,RUSH STOP / CHARLES CITY,Big Spenders,609 S MAIN ST,FLOYD,-92.68254,43.06101
5645,PHILLIPS 66 / GRINNELL,Champions,1031 WEST ST,POWESHIEK,-92.72737,41.74591
6243,HY-VEE DOLLAR FRESH / INDEPENDENCE,Big Spenders,1975 3 ELMS ROAD,BUCHANAN,-91.8888,42.45661
6190,HAWKS LIQUOR & TOBACCO / CORALVILLE,Champions,2425 2ND STREET,JOHNSON,-91.60082,41.68433
10100,EASTSIDE LIQUOR AND GROCERY / MARSHALLTOWN,Champions,1116 EAST NEVADA STREET,MARSHALL,-92.89304,42.04434
5242,KUM & GO #3502 / IOWA CITY,Big Spenders,2303 MUSCATINE AVE,JOHNSON,-91.50162,41.64955
5818,CASEY'S GENERAL STORE #2894 / INDIANOLA,Big Spenders,1101 E 2ND AVE,WARREN,-93.54773,41.35808
4152,FOOD LAND SUPER MARKETS,Champions,407 W HURON,HARRISON,-95.89893,41.55739
6135,KIRKWOOD LIQUOR AND TOBACCO / IOWA CITY,Big Spenders,300 KIRKWOOD AVE,JOHNSON,-91.53149,41.64943
6204,DEPOT LIQUOR & GROCERY / MARSHALLTOWN,Champions,114 CENTER ST.,MARSHALL,-92.91295,42.05161
4452,SELECT MART    GORDON DR,Champions,2825 GORDON DR,WOODBURY,-96.37201,42.48962
2623,HY-VEE FOOD STORE #4 / SIOUX CITY,Champions,2827 HAMILTON BLVD,WOODBURY,-96.41781,42.51984
6041,LIQUOR DOWNTOWN / IOWA CITY,Champions,315 S GILBERT ST,JOHNSON,-91.53028,41.65736
3784,HARTIG DRUG #14 / INDEPENDENCE,Champions,201 1ST STREET WEST,BUCHANAN,-91.89297,42.46873
5710,CASEY'S #3763 -WAVERLY,Big Spenders,1032 4TH STREET SW,BREMER,-92.47551,42.71557
3879,TARGET STORE T-1800 / SIOUX CITY,Champions,5775 SUNNYBROOK DR,WOODBURY,-96.33256,42.45226
3928,SMOKIN' JOE'S #12 TOBACCO AND LIQUOR OUTLET,Big Spenders,465 HWY 965 UNIT G,JOHNSON,-91.60761,41.74002
3756,MAIN STREET LIQUORS / MANNING,Champions,316 MAIN ST,CARROLL,-95.06512,41.90859
5882,HOMETOWN FOODS / STATE CENTER,Big Spenders,120 E MAIN ST / STATE CENTER,MARSHALL,-93.1624,42.01683
5408,CASEY'S GENERAL STORE # 1441/ MARSHALLTOWN,Need Attention,1402 S 12TH AVE,MARSHALL,-92.89344,42.03189
4713,WALGREENS #10985 / CORALVILLE,Need Attention,2751 HEARTLAND DR,JOHNSON,-91.61004,41.70056
5117,FOOD & GAS MART  /  MARSHALLTOWN,Big Spenders,"613, N 3RD AVE",MARSHALL,-92.90809,42.05767
4697,SOUTHSIDE LIQUOR & TOBACCO / IOWA CITY,Champions,1921 KEOKUK ST,JOHNSON,-91.52482,41.64196
5295,YESWAY STORE # 10023/ WATERLOO,Need Attention,117 SAN MARNAN DR E,BLACK HAWK,-92.35576,42.45783
10076,HOMETOWN SPIRITS / TIFFIN,Champions,119 WEST MARENGO ROAD,JOHNSON,-91.66474,41.7071
5678,SAVE MORE / DAVENPORT,Champions,405 E LOCUST ST,SCOTT,-90.56882,41.53827
2228,RODGERS SPIRITS AND MORE,Need Attention,53 GREEN ST,MADISON,-94.01398,41.33639
4192,FAREWAY STORES #044 / BETTENDORF,Champions,3800 BELMONT RD,SCOTT,-90.48035,41.55631
3565,HARTIG DRUG STORE #10 / IOWA CITY,Big Spenders,701 MORMON TREK BLVD,JOHNSON,-91.57404,41.65219
6246,KWIK STAR #1142  / IOWA CITY,Big Spenders,1907 KEOKUK STREET,JOHNSON,-91.52468,41.64239
4000,FOODLAND SUPER MARKETS / WOODBINE,Champions,62 5TH ST,HARRISON,-95.70297,41.73704
5186,CASEY'S GENERAL STORE #3452 / WEST U,Big Spenders,"102, E  BRADFORD ST",FAYETTE,-91.80637,42.96421
4588,SAM'S MINI MART / SIOUX CITY,Need Attention,923 W 7TH ST,WOODBURY,-96.41944,42.50368
4786,CASEY'S GENERAL STORE #1706 / WINTERSET,Big Spenders,1021 N 1ST ST,MADISON,-94.01348,41.34354
5203,KIMMES COON RAPIDS COUNTRY STORE #12,Big Spenders,"516, HIGHWAY 141",CARROLL,-94.67786,41.8658
4981,SINCLAIR FOOD MART,Big Spenders,206 N MAIN ST,TAMA,-92.46547,42.19641
6210,BAILEY'S CONVENIENCE / SIOUX CITY,Big Spenders,1203 TRI VIEW AVENUE,WOODBURY,-96.42298,42.49418
5027,HARD ROCK HOTEL & CASINO SIOUX CITY,Big Spenders,111 3RD ST,WOODBURY,-96.41019,42.49305
5926,GOPUFF / IOWA CITY,Big Spenders,1907 STEVENS DR  UNITS C-E,JOHNSON,-91.53454,41.64172
2593,HY-VEE FOOD STORE / CARROLL,Champions,905 US HIGHWAY 30 WEST,CARROLL,-94.87676,42.07076
4769,ELMA LOCKER AND GROCERY,Big Spenders,100 GRANT ST,HOWARD,-92.43577,43.24432
4651,CASEY'S GENERAL STORE #2300 / JEWELL,Big Spenders,301 MAIN ST,HAMILTON,-93.64,42.30264
5244,THE OX & WREN SPIRITS AND GIFTS,Champions,708 2ND  AVE  SE,HOWARD,-92.10635,43.3711
5511,THE DEPOT NORTH LIBERTY,Big Spenders,1290 S DUBUQUE ST,JOHNSON,-91.58839,41.74116
3997,WAL-MART 4606 / OSCEOLA,Big Spenders,2400 COLLEGE DRIVE,CLARKE,-93.79989,41.02475
3354,SAM'S CLUB 8238 / DAVENPORT,Champions,3845 ELMORE AVE.,SCOTT,-90.52719,41.55736
3932,MAIN STREET SPIRITS / MAPLETON,Champions,311 MAIN ST,MONONA,-95.79376,42.16589
5352,CASEY'S GENERAL STORE # 3565/ TRIPOLI,Big Spenders,600 7TH AVE,BREMER,-92.2485,42.80235
4888,CIRCLE S BLUFF STOP,Big Spenders,302 1ST ST,WOODBURY,-96.36138,42.40033
2705,HY-VEE CRESCO DOLLAR FRESH,Big Spenders,22422 HWY 9,HOWARD,-92.13081,43.37108
4395,KUM & GO #133 / ELLSWORTH,Big Spenders,1111 IA HIGHWAY 175,HAMILTON,-93.57371,42.31048
5060,L&M MIGHTY SHOP,Big Spenders,"504, E BURLINGTON ST",JOHNSON,-91.52845,41.65785
2672,HY-VEE / WINTERSET,Champions,923 N  1ST ST,MADISON,-94.01348,41.34253
5197,KUM & GO #201 / CORALVILLE,Big Spenders,822 1ST  AVE,JOHNSON,-91.56639,41.68131
6121,LIQUOR TOBACCO & VAPE / MANCHESTER,Big Spenders,316 E MAIN ST,DELAWARE,-91.45444,42.48402
3054,MCNALLY'S SUPER VALU,Big Spenders,1026 MAIN,POWESHIEK,-92.72579,41.74573
4366,KUM & GO #137 / TIFFIN,Big Spenders,101 VILLAGE DR,JOHNSON,-91.65616,41.69656
4882,CASEY'S GENERAL STORE #3026 / ST CHARLES,Big Spenders,209 E MAIN ST,MADISON,-93.80392,41.28843
2704,HY-VEE OELWEIN DOLLAR FRESH,Champions,1345 S FREDERICK AVE,FAYETTE,-91.91359,42.65941
5666,COSTCO WHOLESALE #1325 / DAVENPORT,Champions,2790 E 53RD ST,SCOTT,-90.53397,41.57484
3651,INDY 66 #1500 / INDIANOLA,Champions,1500 NORTH JEFFERSON,WARREN,-93.5584,41.37311
5715,RAY'S SUPER MARKET / EVANSDALE,Need Attention,3452 LAFAYETTE ROAD,BLACK HAWK,-92.29173,42.47842
5952,TOBACCO OUTLET PLUS #537 / IOWA CITY,Champions,923 S RIVERSIDE DR,JOHNSON,-91.54018,41.64901
3456,QUICK SHOP / CLEAR LAKE,Champions,904 N 8TH ST,CERRO GORDO,-93.3788,43.14286
4146,FAREWAY STORES #561 / WAVERLY,Champions,220 W BREMER AVE,BREMER,-92.47417,42.72575
4684,INDY 66 #1201 / INDIANOLA,Big Spenders,1201 N JEFFERSON,WARREN,-93.55838,41.37168
5530,YESWAY #1148 / MARSHALLTOWN,Need Attention,1701 IOWA AVE E,MARSHALL,-92.88481,42.00688
6054,LIBERTY VIEW WINE & SPIRITS / NORTH LIBERTY,Champions,595 COUNTRY LANE  STE 1,JOHNSON,-91.62236,41.75166
10081,COLFAX TRAVEL CENTER / COLFAX,Need Attention,1405 NORTH WALNUT STREET,JASPER,-93.24677,41.69555
5701,THE HUT 23,Champions,603 10TH STREET,MONONA,-96.09718,42.0318
5727,ONE STOP SHOP #4 - DENISON,Big Spenders,306 NORTH 7TH STREET,CRAWFORD,-95.36078,42.02064
4253,FAREWAY STORES #683 / WINTERSET,Champions,719 W. HIGHWAY 92,MADISON,-94.01903,41.34486
4837,KUM & GO #51 / IOWA CITY,Need Attention,323 E BURLINGTON ST,JOHNSON,-91.53064,41.65787
4558,KUM & GO #226 / SIOUX CITY,Champions,1373 PIERCE ST,WOODBURY,-96.40503,42.50474
5871,GM MART / IOWA CITY,Champions,2601 HIGHWAY 6 EAST,JOHNSON,-91.49602,41.63415
5870,KEYSTONE LIQUOR,Champions,517 2ND ST,JOHNSON,-91.57392,41.67152
4385,KUM & GO #43 / NEW VIRGINIA,Big Spenders,1453 CO HWY G76,WARREN,-93.78232,41.17654
2656,HY-VEE FOOD STORE / CORNING,Potential Loyalist,300  10TH ST,ADAMS,-94.73183,40.99183
5445,CASEY'S GENERAL STORE # 2781/ IOWA CITY,Big Spenders,1410 WILLOW CREEK DR.,JOHNSON,-91.56005,41.64147
5179,BAXTER FAMILY MARKET,Big Spenders,"103, N  MAIN ST",JASPER,-93.15143,41.82674
4560,CASEY'S GENERAL STORE #2914 / HARLAN,Big Spenders,"1006, CHATBURN AVE",SHELBY,-95.32271,41.64541
2595,HY-VEE WINE AND SPIRITS / DENISON,Champions,"1620  4TH AVE, SOUTH",CRAWFORD,-95.34853,42.01232
6267,POLK CITY LIQUOR / POLK CITY,Champions,201 NORTH 3RD STREET,POLK,-93.71316,41.77242
3888,WAL-MART 0647 / GRINNELL,Champions,415 INDUSTRIAL AVE,POWESHIEK,-92.73032,41.72091
6189,HY-VEE DOLLAR FRESH / MANCHESTER,Big Spenders,1080 W MAIN ST.,DELAWARE,-91.47158,42.48389
10019,OELWEIN MART / OELWEIN,Big Spenders,801 EAST CHARLES STREET,FAYETTE,-91.90234,42.6788
10098,THE PUMPER / FAYETTE,Big Spenders,515 W. WATER STREET,FAYETTE,-91.80875,42.84444
4973,QUILLINS QUALITY FOODS WEST UNION,Champions,"303, HWY 150 N",FAYETTE,-91.81441,42.96531
3719,WAL-MART 0581 / MARSHALLTOWN,Champions,2802 S CENTER ST,MARSHALL,-92.91247,42.01208
5988,CASEY'S GENERAL STORE #1527 / GRINNELL,Big Spenders,312 WEST STREET,POWESHIEK,-92.72731,41.73524
4565,KUM & GO #228 / SIOUX CITY,Big Spenders,1925 S LAKEPORT ST,WOODBURY,-96.34664,42.47085
4019,WAL-MART 1506 / MANCHESTER,Champions,1220 WEST MAIN,DELAWARE,-91.47817,42.48386
5120,CASEY'S GENERAL STORE #3442 / MAPLET,Big Spenders,"401, S  4TH  ST",MONONA,-95.79328,42.16184
6257,STATION MART 2 / EVANSDALE,Champions,1119 RIVER FOREST ROAD,BLACK HAWK,-92.29778,42.4628
6040,HOMETOWN FOODS / TRAER,Big Spenders,420 SECOND STREET,IOWA,-92.46808,42.1934
5405,KUM & GO #524/ CORALVILLE,Big Spenders,2600 HOLIDAY RD,JOHNSON,-91.60731,41.70053
5406,CASEY'S GENERAL STORE # 2918/ CORALVILLE,Big Spenders,2798 COMMERCE DR.,JOHNSON,-91.61045,41.69586
5257,MAD AVE QUIK SHOP,Champions,"405, MADISON AVE",WAPELLO,-92.41044,40.99903
5712,CASEY'S #2866-WATERLOO,Big Spenders,51 E TOWER PARK DRIVE,BLACK HAWK,-92.35595,42.45642
6020,I TOWNER STOP / INDIANOLA,Champions,403 W 2ND AVE,WARREN,-93.56585,41.35838
5728,BEER THIRTY DENISON,Champions,923 4TH AVENUE SOUTH,CRAWFORD,-95.36009,42.01235
5086,BREW FLOYD / SIOUX CITY,Champions,2501 FLOYD BLVD,WOODBURY,-96.38511,42.51602
4285,FAREWAY STORES #922 / NEW HAMPTON,Champions,102 S WATER AVE,CHICKASAW,-92.31288,43.05803
5987,CASEY'S GENERAL STORE #3955 / NORTH LIBERTY,Big Spenders,245 S HWY 965,JOHNSON,-91.6076,41.74308
5358,KUM & GO #1056/ BEVINGTON,Big Spenders,101 E IA HWY 92,WARREN,-93.79263,41.35979
3930,KUENNEN'S LIQUOR STORE,Big Spenders,106 W MAINS ST PO BOX 142,FAYETTE,-91.93327,43.06598
4506,CASEY'S GENERAL STORE #2667 / TIFFIN,Big Spenders,403 STEPHENS ST,JOHNSON,-91.6602,41.7073
5989,CASEY'S GENERAL STORE #1134 / GRINNELL,Need Attention,1718 6TH AVE,POWESHIEK,-92.71101,41.74615
9013,IOWA DISTILLING COMPANY (ET),Big Spenders,4349 CUMMING AVE.,WARREN,-93.76245,41.4832
5683,CASEY'S GENERAL STORE #2697 / ONAWA,Big Spenders,706 10TH ST,MONONA,-96.0972,42.03036
4884,TOBACCO HUT #11 / SIOUX CITY,Big Spenders,"4523, MORNINGSIDE AVE",WOODBURY,-96.34867,42.47047
5855,TAYLOR QUIK PIK - HARLAN,Need Attention,2111 23RD STREET,SHELBY,-95.33969,41.64799
4457,KUM & GO #422 / IOWA CITY,Big Spenders,731 S RIVERSIDE DR,JOHNSON,-91.54028,41.6506
3943,GOOD AND QUICK CO,Champions,519 LINCOLNWAY,STORY,-93.45326,42.0227
4504,JIFFY EXPRESS #921 / INDIANOLA,Big Spenders,311 NORTH JEFFERSON,WARREN,-93.55835,41.36305
3611,LOGAN SUPER FOODS,Big Spenders,403 E 6TH,HARRISON,-95.78624,41.64406
5829,CASEY'S GENERAL STORE #3858 - IOWA CITY,Big Spenders,370 SCOTT CT,JOHNSON,-91.48214,41.65747
5537,PRONTO MARKET / SUMNER,Big Spenders,117 W 1ST ST,BREMER,-92.09871,42.84746
5228,ANTHON MINI MART,Big Spenders,"101, W MAIN ST",WOODBURY,-95.86849,42.38826
3859,WAL-MART 0750 / INDEPENDENCE,Champions,302 ENTERPRISE DR SW,BUCHANAN,-91.89302,42.45068
5396,CASEY'S GENERAL STORE # 3512/ INDIANOLA,Big Spenders,301 E TRAILRIDGE AVE,WARREN,-93.54872,41.38317
6120,CRESCO MART,Big Spenders,202 2ND AVE SW,HOWARD,-92.11894,43.3711
5786,CASEY'S GENERAL STORE #2779 / CORALVILLE,Big Spenders,1987 2ND ST,JOHNSON,-91.59092,41.6792
4657,CASEY'S GENERAL STORE #2526 / WELLSBURG,Big Spenders,308 N WASHINGTON,GRUNDY,-92.92525,42.43626
5592,HUBER'S STORE / FORT ATKINSON,Big Spenders,101 MAIN STREET,WINNESHIEK,-91.93245,43.14339
4568,SELECT MART / SIOUX CITY,Champions,4103 FLOYD BLVD,WOODBURY,-96.35844,42.54205
5649,THE DEPOT TIFFIN,Big Spenders,221 W MARENGO RD,JOHNSON,-91.66563,41.70716
5538,CASEY'S GENERAL STORE #2490 / STORY CITY,Big Spenders,1625 E BROAD ST,STORY,-93.5742,42.18774
4482,INDY 66 WEST #929 / INDIANOLA,Big Spenders,2001 WEST 2ND AVE,WARREN,-93.58765,41.35613
5673,CASEY'S GENERAL STORE #2821 / GLADBROOK,Big Spenders,201 8TH ST,TAMA,-92.71808,42.18131
4205,FAREWAY STORES #467 / MARSHALLTOWN,Big Spenders,102 WEST ANSON ST,MARSHALL,-92.91498,42.03813
4524,CASEY'S GENERAL STORE #1139 / NORA SPRINGS,Big Spenders,14 E CONGRESS,FLOYD,-93.00521,43.14271
4640,MART STOP #1 / DAVENPORT,Big Spenders,3527 SPRING ST,SCOTT,-90.54771,41.55618
2536,HY-VEE (1530) / PLEASANT HILL,Champions,4815 MAPLE DRIVE,POLK,-93.51874,41.59714
4910,PRIME MART #3 / WATERLOO,Champions,1008 LAPORTE RD,BLACK HAWK,-92.32301,42.47635
2660,HY-VEE FOOD STORE / SIOUX CENTER,Champions,1951 S MAIN AVE,SIOUX,-96.1753,43.05617
3993,NEW STAR LIQUOR / W 4TH S / WATERLOO,Champions,1625 WEST 4TH ST,BLACK HAWK,-92.35649,42.48437
6217,TODD'S SHELL / ROCK RAPIDS,Big Spenders,209 SOUTH UNION STREET,LYON,-96.1755,43.43001
5669,GUDDI MART / WATERLOO,Need Attention,306 BYRON AVE,BLACK HAWK,-92.35313,42.48027
2285,JOHN'S GROCERY,Champions,401 EAST MARKET ST,JOHNSON,-91.52984,41.6636
5423,STAMMER LIQUOR CORP,Champions,615 2ND AVE,O'BRIEN,-95.85479,43.18455
2501,HY-VEE  #2 (1018) / AMES,Champions,640 LINCOLNWAY,STORY,-93.61927,42.0229
2661,HY-VEE FOOD STORE / SHELDON,Champions,1989 PARK ST,O'BRIEN,-95.83133,43.18603
5113,"RAY'S SUPERMARKET, INC.",Champions,1975 FRANKLIN ST,BLACK HAWK,-92.31521,42.49538
2675,HY-VEE #2 / CORALVILLE,Champions,3285 CROSSPARK RD,JOHNSON,-91.60636,41.71868
4256,FAREWAY STORES #912 / SIOUX CENTER,Champions,115  1ST AVE NW,SIOUX,-96.17691,43.07799
5003,FAMOUS LIQUORS,Champions,2604 W LOCUST ST,SCOTT,-90.61555,41.53819
4231,FAREWAY STORES #719 / LE MARS,Champions,115 PLYMOUTH ST NE,PLYMOUTH,-96.16465,42.79306
5419,CASEY'S GENERAL STORE # 3604/HINTON,Big Spenders,121 N FLOYD AVE,PLYMOUTH,-96.29168,42.62761
2502,HY-VEE WINE AND SPIRITS (1022) / ANKENY,Champions,410 NORTH ANKENY BLVD,POLK,-93.60044,41.73464
4160,FAREWAY STORES #034 / IOWA CITY,Big Spenders,2765 COMMERCE DR,JOHNSON,-91.48043,41.6296
2513,HY-VEE FOOD STORE #2 (1285) / IOWA CITY,Champions,812 S 1ST AVE,JOHNSON,-91.502,41.6514
3705,LIQUOR LOCKER,Champions,507 1ST AVE #100,LYON,-96.17199,43.43184
5731,HOMETOWN FOODS,Champions,1010 EAST MITCHELL AVENUE,BLACK HAWK,-92.34312,42.47665
5298,DEWITT TRAVEL MART,Champions,"630, 6TH AVE",CLINTON,-90.53898,41.82167
10103,WMART / DAVENPORT,Champions,1205 1207 EAST LOCUST STREET,SCOTT,-90.55751,41.53831
4902,BROADWAY LIQUOR,Big Spenders,821 BROADWAY ST,BLACK HAWK,-92.34514,42.51376
6223,PRIME MART #508 / WATERLOO,Champions,508 BROADWAY STREET,BLACK HAWK,-92.34509,42.51056
5371,STATE FOOD MART,Champions,3715 STATE ST.,SCOTT,-90.4821,41.5289
5856,STATION MART #1 - EVANSDALE,Champions,3594 LAFAYETTE ROAD,BLACK HAWK,-92.28798,42.47721
5431,BREW COFFEE WINE SPIRIT AND CIGARS,Champions,346 PLYMOUTH ST SW,PLYMOUTH,-96.17183,42.79305
4004,WAL-MART 4256 / AMES,Champions,534 SOUTHDUFF AVE,STORY,-93.61034,42.01583
3524,SAM'S CLUB 6568 / AMES,Champions,305 AIRPORT RD,STORY,-93.61365,42.00107
5029,THE LIQUOR STOP LLC,Champions,"211, W 53RD ST",SCOTT,-90.57594,41.57455
5415,PRIME MART 7 / WATERLOO,Champions,1309 LAFAYETTE ST,BLACK HAWK,-92.3272,42.49407
2625,HY-VEE WINE & SPIRITS #2 / DAVENPORT,Champions,3301 W KIMBERLY RD,SCOTT,-90.62336,41.56015
2545,HY-VEE DRUGSTORE (7042) / IOWA CITY,Champions,310 N 1ST ST,JOHNSON,-91.53177,41.64842
5599,KWIK STOP 4,Champions,515 BROADWAY ST,BLACK HAWK,-92.34509,42.51079
2517,HY-VEE FOOD STORE #1 (1449) / NEWTON,Champions,1501 FIRST AVENUE EAST,JASPER,-93.03504,41.6992
4760,WALGREENS #07455 / WATERLOO,Big Spenders,111 W RIDGEWAY AVE,BLACK HAWK,-92.35748,42.46941
5770,CASEY'S GENERAL STORE #2427 / WATERLOO,Big Spenders,3035 LOGAN AVE,BLACK HAWK,-92.33752,42.54291
4255,FAREWAY STORES #058 / ORANGE CITY,Champions,512  8TH SE,SIOUX,-96.0519,42.99754
5946,TOBACCO OUTLET PLUS #530 / AMES,Big Spenders,204 S DUFF AVE,STORY,-93.61033,42.02126
3715,KIMBERLY MART / DAVENPORT,Champions,1714 E KIMBERLY RD,SCOTT,-90.55099,41.55698
3670,WAL-MART 2827 / CORALVILLE,Champions,2801 COMMERCE DR,JOHNSON,-91.61228,41.6957
4277,CORK IT!,Champions,769 PROSPECT ST SW,PLYMOUTH,-96.17821,42.77626
5335,EXPO LIQUOR,Champions,1810 STATE STREET,SCOTT,-90.50689,41.52528
5153,OAK STREET STATION LLC,Big Spenders,2403 US HWY 18,LYON,-96.43086,43.3015
5933,ALI'S CORNER / WATERLOO,Champions,1117 E 4TH ST,IOWA,-92.33275,42.50773
5691,LOGAN AVE CONVENIENCE STORE / WATERLOO,Need Attention,735 LOGAN AVE,BLACK HAWK,-92.33774,42.51042
10039,LIQUOR LOVERS / ANKENY,Champions,1510 SOUTH ANKENY BOULEVARD PRAIRIE TRAIL SUITE 106 108,POLK,-93.60049,41.71523
4153,FAREWAY STORES #067 / EVANSDALE,Champions,215 S EVANS RD,BLACK HAWK,-92.28783,42.47561
5914,UNI MART / WATERLOO,Big Spenders,1615 BISHOP AVE,BLACK HAWK,-92.29308,42.49808
4194,FAREWAY STORES #848 / NEWTON,Champions,120 N 3RD AVE E,JASPER,-93.05287,41.70143
3763,MAIN STREET LIQUORS / HAWARDEN,Big Spenders,911 CENTRAL AVE,SIOUX,-96.48524,42.9961
3981,WAL-MART 1152 / SIOUX CENTER,Champions,255 16TH ST SW,SIOUX,-96.17962,43.06085
2500,HY-VEE FOOD STORE #1 (1013) / AMES,Champions,3800 W LINCOLN WAY,STORY,-93.56332,42.02297
4978,PRIME MART #3535 / WATERLOO,Big Spenders,3535 MARIGOLD DR,BLACK HAWK,-92.29137,42.43538
4265,KWIK STOP 3 / WATERLOO,Champions,1104 WASHINGTON ST,BLACK HAWK,-92.33695,42.4891
3690,TARGET STORE T-1792 / WATERLOO,Big Spenders,1501 E SAN MARNAN,BLACK HAWK,-92.32519,42.46459
2622,HY-VEE FOOD STORE / IOWA CITY,Champions,1125 N DODGE ST,JOHNSON,-91.51861,41.67619
5187,KWIK STOP LIQUOR & GROCERIES AMES,Champions,125 6TH ST,STORY,-93.61177,42.02692
5504,NEIGHBORHOOD MART,Champions,2102 LAFAYETTE ST,BLACK HAWK,-92.3139,42.48991
6263,PUMP N PACK / ROCK VALLEY,Big Spenders,1004 MAIN STREET,SIOUX,-96.29486,43.20017
5681,QUICK CORNER / HAWARDEN,Big Spenders,901 10TH ST,SIOUX,-96.48202,42.99675
3873,TARGET STORE T-1113 / CORALVILLE,Big Spenders,1441 CORAL RIDGE AVE,JOHNSON,-91.60845,41.69072
6239,LARCHWOOD QUICK STOP / LARCHWOOD,Big Spenders,832 BROADWAY STREET,LYON,-96.43413,43.45353
3742,WAL-MART 1625 / LEMARS,Champions,1111 HOLTON DR,PLYMOUTH,-96.18537,42.78092
6083,NEIGHBORHOOD LIQUOR AND SMOKES / AMES,Champions,3505 LINCOLN WAY SUITE 105,STORY,-93.66606,42.02284
4084,FAREWAY STORES #061 / ANKENY,Champions,3205 NORTH ANKENY BLVD,POLK,-93.60019,41.75677
6102,BREW OIL #53 / SIBLEY,Big Spenders,1026 2ND AVE,OSCEOLA,-95.75205,43.39794
4891,SCHOTTSY'S LIQUOR,Champions,109 5TH ST,OSCEOLA,-95.75126,43.40398
5639,CASEY'S GENERAL STORE #68 / ALTON,Big Spenders,1109 3RD AVE,SIOUX,-96.00934,42.98902
5730,JIM'S FOOD,Big Spenders,437 SULLIVAN AVENUE,BLACK HAWK,-92.35592,42.48713
4301,SAHOTA FOOD MART,Potential Loyalist,1805 SE 14TH ST,POLK,-93.59692,41.57218
5133,DON'S FOOD CENTER,Need Attention,"102, ALBANY AVE NE",SIOUX,-96.05676,43.00638
3917,SMOKIN' JOE'S #2 TOBACCO AND LIQUOR OUTLET,Champions,1606 W LOCUST ST,SCOTT,-90.59904,41.53824
4336,LAST CALL 2,Big Spenders,120 N MAIN ST,LYON,-96.00235,43.34429
5662,RIVERSIDE LIQUOR 2 / DAVENPORT,Champions,1528 W LOCUST,SCOTT,-90.59742,41.53823
5144,SAM'S CLUB 6979 / ANKENY,Champions,4625 SE DELAWARE AVE,POLK,-93.58123,41.69018
5900,NEW STAR FLETCHER / WATERLOO,Champions,315 FLETCHER AVE,BLACK HAWK,-92.36714,42.48911
4630,EZ STOP / DAVENPORT,Big Spenders,2923 BRADY ST,SCOTT,-90.57062,41.54989
4337,GRAND FALLS CASINO RESORT,Big Spenders,1415 GRAND FALLS BLVD,LYON,-96.50552,43.49704
4161,FAREWAY STORES #950 / IOWA CITY,Champions,2530 WESTWINDS DR,JOHNSON,-91.5757,41.65082
5331,CASEY'S GENERAL STORE # 1536/ GEORGE,Big Spenders,301 E MICHIGAN AVE,LYON,-95.9983,43.34363
6038,CASEY'S GENERAL STORE #2880 / WATERLOO,Big Spenders,1604 LA PORTE RD,BLACK HAWK,-92.32269,42.47087
3624,WAL-MART 0748 / NEWTON,Champions,300 IOWA SPEEDWAY DR,JASPER,-93.01448,41.69663
5622,CASEY'S GENERAL STORE #3044 / SHELDON,Big Spenders,504 2ND AVE,O'BRIEN,-95.85427,43.18581
5413,LIL' CHUBS CORNER STOP,Big Spenders,712 S OAK ST,LYON,-96.43085,43.30205
10040,HOSPERS MINI MART / HOSPERS,Need Attention,4501 400TH STREET,SIOUX,-95.89931,43.06922
10063,IB PONY / WATERLOO,Big Spenders,9 N ELK RUN ROAD,BLACK HAWK,-92.25888,42.49876
10080,NEW STAR RAYMOND / RAYMOND,Big Spenders,101 COMMERCIAL STREET,BLACK HAWK,-92.21943,42.46627
6308,LIQUOR LAND / AMES,Need Attention,4518 MORTENSEN ROAD,STORY,-93.68065,42.01216
5480,CASEY'S GENERAL STORE #3385 / ORANGE CITY,Big Spenders,704 8TH ST SE,SIOUX,-96.04944,42.99754
6008,TARGET STORE T-3374 / IOWA CITY,Big Spenders,113 E WASHINGTON ST,JOHNSON,-91.53395,41.66008
5410,UMIYA FOODMART INC,Big Spenders,318 E NORTH ST.,MADISON,-93.84308,41.2099
4143,BUCKY'S / LAWLER,Big Spenders,603  E HWY 24,CHICKASAW,-92.14712,43.06788
3385,SAM'S CLUB 8162 / CEDAR RAPIDS,Champions,2605 BLAIRS FERRY RD NE,LINN,-91.6796899,42.0318188
2191,KEOKUK SPIRITS,Champions,1013 MAIN,LEE,-91.38774,40.40001
5293,THE BOONEDOCKS,Champions,"228, N HWY 71",DICKINSON,-95.12596,43.37085
2532,HY-VEE FOOD STORE #2 (1138) / DES MOINES,Champions,2540 E EUCLID,POLK,-93.56944,41.62835
3484,JEFF'S FOODS,Big Spenders,110 W CEDAR ST,CHEROKEE,-95.80858,42.8257
2673,HY-VEE # 6/ DES MOINES,Champions,420 COURT AVE,POLK,-93.62204,41.58432
5349,CASEY'S GENERAL STORE # 3564/ ROBINS,Big Spenders,990 ROBINS SQUARE DR.,LINN,-91.65375,42.0682
2572,HY-VEE FOOD STORE / CEDAR FALLS,Champions,6301 UNIVERSITY,BLACK HAWK,-92.43346,42.51353
4655,CASEY'S GENERAL STORE #2237 / PRAIRIE CITY,Big Spenders,1002 W 2ND ST,JASPER,-93.24739,41.5967
2588,HY-VEE FOOD AND DRUG #6 / CEDAR RAPIDS,Champions,4035 MT VERNON RD SE,LINN,-91.60979,41.97687
6205,MEGA SAVER # 3607 / COUNCIL BLUFFS,Champions,3607 9TH AVENUE,POTTAWATTAMIE,-95.90509,41.25369
3390,OKOBOJI AVENUE LIQUOR,Champions,1610 OKOBOJI AVENUE,DICKINSON,-95.14999,43.33154
5676,FAMILY PANTRY,Champions,4538 LOWER BEAVER RD,POLK,-93.66588,41.63867
4463,CASEY'S GENERAL STORE #3031 / GARNER,Big Spenders,145 US HWY 18 W,HANCOCK,-93.60278,43.10582
4397,QUIK TRIP #514 / ANKENY,Big Spenders,802 E 1ST ST,POLK,-93.5863,41.73188
5565,CASEY'S GENERAL STORE #1310 / ANKENY,Big Spenders,1310 NW 18TH ST,POLK,-93.61722,41.74682
4449,KUM & GO #121 / URBANDALE,Big Spenders,12041 DOUGLAS PKWY,POLK,-93.78192,41.62961
6147,BANI'S / CEDAR FALLS,Champions,2128 COLLEGE STREET,BLACK HAWK,-92.45579,42.51801
4272,FAREWAY STORES #407 / ESTERVILLE,Champions,1108 CENTRAL AVE,EMMET,-94.82983,43.40204
2584,HY-VEE FOOD STORE / FORT MADISON,Champions,2606 AVENUE L,LEE,-91.34292,40.62702
2601,HY-VEE FOOD STORE / FAIRFIELD,Champions,1300 WEST BURLINGTON AVE,JEFFERSON,-91.97969,41.00646
5963,CASEY'S GENERAL STORE #1798 / FOREST CITY,Big Spenders,106 HWY 69 S,WINNEBAGO,-93.63301,43.26304
2621,HY-VEE FOOD STORE #3 / SIOUX CITY,Champions,3301 GORDON DR,WOODBURY,-96.36268,42.48854
2590,HY-VEE FOOD STORE #5 / CEDAR RAPIDS,Champions,3235 OAKLAND ROAD NE,LINN,-91.65818,42.01089
3625,WAL-MART 0892 / ANKENY,Champions,1002 SE NATIONAL DR,POLK,-93.58243,41.70485
3645,WAL-MART 1764 / WINDSOR HEIGHTS,Champions,1001  73RD ST,POLK,-93.71857,41.59669
2611,HY-VEE DRUGSTORE / OTTUMWA,Champions,1140 NORTH JEFFERSON ST,WAPELLO,-92.40153,41.02675
4202,FAREWAY STORES #829 / SIOUX CITY,Champions,4267 SERGEANT ROAD,WOODBURY,-96.35281,42.44921
3722,WAL-MART 1361 / SIOUX CITY,Champions,3400 SINGING HILLS BLVD,WOODBURY,-96.3644,42.43607
2130,SYCAMORE CONVENIENCE,Champions,617 SYCAMORE,BLACK HAWK,-92.33538,42.49784
5685,FAREWAY STORES #190 / CEDAR FALLS,Champions,4500 S MAIN ST,BLACK HAWK,-92.44587,42.4983
5590,CASEY'S GENERAL STORE #1941 / ANKENY,Big Spenders,1010 SE ORALABOR RD,POLK,-93.58189,41.70346
4774,CASEY'S GENERAL STORE #3034 / ESTHERVILLE,Big Spenders,"1615, CENTRAL AVE",EMMET,-94.82204,43.40217
6248,QUICK STOP #380 / CEDAR RAPIDS,Champions,380 BLAIRS FERRY ROAD NORTHEAST,LINN,-91.63815,42.03475
2555,HY-VEE FOOD STORE (1324) / KEOKUK,Champions,3111 MAIN,LEE,-91.40373,40.41537
2538,HY-VEE FOOD STORE #3 (1866) / WATERLOO,Champions,1422 FLAMMANG DR,BLACK HAWK,-92.32789,42.45998
4083,FAREWAY STORES #909 / ANKENY,Champions,109 SE ORALABOR ROAD,POLK,-93.5995,41.70282
2653,HY-VEE WINE AND SPIRITS / WASHINGTON,Champions,1004 W MADISON ST,WASHINGTON,-91.70457,41.29657
4169,SUPER QUICK 2 / HUBBELL,Champions,1824 HUBBELL AVE,POLK,-93.58652,41.59604
2620,HY-VEE / WINDSOR HEIGHTS,Champions,7101 UNIVERSITY AVE,POLK,-93.7136,41.60038
2558,HY-VEE FOOD STORE (1433) / MOUNT PLEASANT,Champions,1700 E WASHINGTON,HENRY,-91.52872,40.9623
2585,HY-VEE WINE AND SPIRITS (1010) / ALGONA,Champions,1502 HIGHWAY 169 N SUITE 1,KOSSUTH,-94.23605,43.08152
10106,MILL STREET WINE AND SPIRITS / LAKE MILLS,Big Spenders,107 NORTH MILL STREET,WINNEBAGO,-93.535,43.41968
2629,HY-VEE FOOD STORE #2 / COUNCIL BLUFFS,Champions,1745 MADISON AVE,POTTAWATTAMIE,-95.82664,41.24351
5315,BROTHER'S MARKET WINE AND SPIRITS,Big Spenders,110 SOUTH MAIN STREET,KEOKUK,-92.20517,41.33328
4993,SITE FOOD MART,Big Spenders,"1301, MAIN ST",LEE,-91.39005,40.40225
4687,KUM & GO #517 / CEDAR RAPIDS,Potential Loyalist,3132 1ST AVE NE,LINN,-91.6349,42.00961
5636,HAWKS SMOKE SHOP / CEDAR RAPIDS,Champions,5427  CENTER POINT RD,LINN,-91.66808,42.03348
2106,HILLSTREET NEWS AND TOBACCO,Champions,2217 COLLEGE,BLACK HAWK,-92.4558,42.51717
3769,WAL-MART 0753 / CEDAR FALLS,Champions,525 BRANDILYNN BLVD,BLACK HAWK,-92.44005,42.48501
6339,AINSWORTH FOUR CORNERS / AINSWORTH,Big Spenders,3112 IOWA 92,WASHINGTON,-91.53744,41.29042
5435,JUNCTION LIQUOR,Big Spenders,"10 3RD ST. NW, STE B",O'BRIEN,-95.47714,43.18482
3757,WAL-MART 3590 / SIOUX CITY,Champions,3101 FLOYD BLVD,WOODBURY,-96.37242,42.53119
5068,TOBACCO SHOP / ARNOLDS PARK,Champions,612 S HIGHWAY 71,DICKINSON,-95.14021,43.36166
5374,IOWA LIQUOR & TOBACCO,Champions,1021 EAST MAIN STREET,WAPELLO,-92.4007,41.0104
6258,FORT MADISON TOBACCO AND LIQUOR OUTLET PLUS / FORT MADISON,Champions,1735 AVENUE H,LEE,-91.3298,40.63022
2522,HY-VEE WINE AND SPIRITS (1628) / SPIRIT LAKE,Champions,1902 PEORIA AVENUE,DICKINSON,-95.11185,43.42172
5911,OLD FIRE LIQUOR / BUFFALO CENTER,Big Spenders,113 1ST ST NW,WINNEBAGO,-93.94756,43.38676
2605,HY-VEE DRUGSTORE #5 / CEDAR RAPIDS,Champions,2001 BLAIRS FERRY RD NE,LINN,-91.66913,42.0348
2548,HY-VEE FOOD STORE (1011) / ALTOONA,Champions,100 8TH STREET SW,POLK,-93.46496,41.64404
4459,KUM & GO #544 / EAGLE GROVE,Big Spenders,1120 S COMMERCIAL,WRIGHT,-93.90439,42.65402
2556,HY-VEE WINE AND SPIRITS (1170) / ESTHERVILLE,Champions,1221 E CENTRAL AVENUE,EMMET,-94.82995,43.40204
3525,WINES AND SPIRITS / WASHINGTON,Champions,106 W 2ND ST,WASHINGTON,-91.69222,41.30041
4698,QUALITY QUICK STOP / FAIRFIELD,Champions,201 WEST BURLINGTIN AVE.,JEFFERSON,-91.96538,41.00666
4254,FAREWAY STORES #849 / EMMETSBURG,Champions,2008 12TH STREET,PALO ALTO,-94.67733,43.10921
3899,WAL-MART 3762 / WDM,Champions,6365 STAGECOACH DR,POLK,-93.79556,41.55806
4236,FAREWAY STORES #551 / EAGLE GROVE,Champions,205 NW  1ST ST,WRIGHT,-93.90326,42.66514
2248,INGERSOLL LIQUOR AND BEVERAGE,Champions,3500 INGERSOLL AVE,POLK,-93.66436,41.58633
5651,SUPER QUICK MART / WINDSOR HEIGHTS,Champions,7690 HICKMAN RD,POLK,-93.7224,41.61451
6306,WINE & SPIRITS SHOPPE OF ALGONA / ALGONA,Champions,111 SOUTH PHILLIPS STREET,KOSSUTH,-94.22686,43.06834
6215,MARLE HAY LIQUOR & SMOKE / DES MOINES,Champions,3408 MERLE HAY ROAD,POLK,-93.69775,41.62514
5211,KUM & GO #129  /  JOHNSTON,Champions,5225 NW  86TH  ST,POLK,-93.73572,41.65581
6117,FAREWAY STORES #212 / COLFAX,Big Spenders,28 E HOWARD ST,JASPER,-93.24444,41.67791
5784,CASEY'S GENERAL STORE #2023 / FT MADISON,Big Spenders,1208 AVE H,LEE,-91.31952,40.6301
2685,HY-VEE -GARNER,Big Spenders,255 WEST US HWY 18,HANCOCK,-93.60538,43.10585
2565,HY-VEE FOOD STORE (1636) / SPENCER,Champions,819 N GRAND AVE,CLAY,-95.14509,43.14635
6116,KWIK SPIRITS #561 / CEDAR FALLS,Champions,4116 UNIVERSITY AVE  STE 104-105,BLACK HAWK,-92.40711,42.50587
5840,BROTHER'S MARKET / CLARION,Big Spenders,325 CENTRAL AVE WEST,WRIGHT,-93.73611,42.73162
5107,KUM & GO #4098 / WINDSOR HEIGHTS,Potential Loyalist,7229 UNIVERSITY AVE,POLK,-93.71724,41.60034
4665,CASEY'S GENERAL STORE #2896 / ANKENY,Big Spenders,2601 SE CREEKVIEW DR,POLK,-93.57162,41.70367
6323,"FAREWAY STORES, INC. #225 / DES MOINES",Champions,2716 BEAVER AVENUE,POLK,-93.67313,41.61993
2642,HY-VEE WINE AND SPIRITS / PELLA,Champions,512 E OSKALOOSA,MARION,-92.8993,41.39695
5917,URBANDALE LIQUOR,Champions,6401 DOUGLAS AVE. STE 1,POLK,-93.70588,41.62996
5080,C'S LIQUOR STORE,Champions,719 2ND AVE W,CLAY,-95.14776,43.14541
5743,CASEY'S GENERAL STORE #3327 / FAIRFIELD,Big Spenders,2125 LIBERTYVILLE RD,JEFFERSON,-91.96364,40.98836
10033,EMPIRE LIQUOR AND TOBACCO / HIAWATHA,Big Spenders,830 ROBINS ROAD,LINN,-91.67297,42.04614
4239,FAREWAY STORES #850 / SPIRIT LAKE,Champions,1906 KEOKUK,DICKINSON,-95.10624,43.42157
5550,CASEY'S GENERAL STORE #2764 / HIAWATHA,Big Spenders,780 N CENTER POINT RD,LINN,-91.68187,42.04626
3420,SAM'S CLUB 6344 / WINDSOR HEIGHTS,Champions,1101  73RD ST,POLK,-93.71806,41.59933
5820,CASEY'S GENERAL STORE #57 / EDDYVILLE,Need Attention,108 S MERINO AVE,WAPELLO,-92.62984,41.1573
4725,CASEY'S GENERAL STORE #1548 / ANKENY,Champions,2905 W 1ST ST,POLK,-93.63847,41.73132
3704,CELTICS BEVERAGE COMPANY,Big Spenders,1122 BROADWAY,PALO ALTO,-94.67888,43.10984
4696,QUIK TRIP #517 / WEST DES MOINES,Potential Loyalist,1451 22ND ST,POLK,-93.73603,41.59506
6029,CASEY'S GENERAL STORE #50 / MOVILLE,Big Spenders,4 S 1ST ST,WOODBURY,-96.0751,42.48846
5264,CASEY'S GENERAL STORE # 2177/MITCHEL,Big Spenders,"309, CENTER AVE",POLK,-93.35812,41.6632
5363,CASEY'S GENERAL STORE # 2253/ CLIVE,Big Spenders,2070 NW 100TH ST,POLK,-93.75572,41.61125
10097,CASEY'S #6127 / COUNCIL BLUFFS,Champions,2711 SOUTH 24TH STREET,POTTAWATTAMIE,-95.87914,41.23453
4867,SPEEDY GAS N SHOP,Big Spenders,430 S 35TH ST,POTTAWATTAMIE,-95.90204,41.25765
5769,CASEY'S GENERAL STORE #2208 / OTTUMWA,Big Spenders,1603 W 2ND ST,WAPELLO,-92.43331,41.03491
4804,WALGREENS #07833 / DES MOINES,Big Spenders,3501 INGERSOLL AVE,POLK,-93.66475,41.58662
4147,FAREWAY STORES #974 / CEDAR FALLS,Champions,214 N MAGNOLIA DR,BLACK HAWK,-92.4747,42.5391
4872,CASEY'S GENERAL STORE #2644 / EARLHAM,Big Spenders,975 N CHESTNUT AVE,MADISON,-94.1234,41.5023
6073,KWIK SPIRITS #560 / CEDAR RAPIDS,Champions,2846 MOUNT VERNON RD SE,LINN,-91.62427,41.97689
3949,WAL-MART 0751 / PELLA,Big Spenders,1650 WASHINGTON ST,MARION,-92.9336,41.41036
3494,SAM'S CLUB 6514 / WATERLOO,Champions,210 EAST TOWER PARK DR,BLACK HAWK,-92.35235,42.45635
4393,KUM & GO #206 / CLIVE,Potential Loyalist,1725 NW 86TH ST,POLK,-93.73633,41.60728
5845,CASEY'S GENERAL STORE #3605 / ANKENY,Big Spenders,3605 NW IRVINEDALE DRIVE,POLK,-93.63896,41.7601
3443,SUPER SAVER IV,Champions,1141 N BROADWAY,POTTAWATTAMIE,-95.83549,41.27072
6202,XO FOOD & LIQUOR / WATERLOO,Big Spenders,428 FRANKLIN STREET,BLACK HAWK,-92.33457,42.50154
4821,CASEY'S GENERAL STORE #3215 / OSKALOOSA,Big Spenders,901 S MARKET ST,MAHASKA,-92.64509,41.28746
2529,HY-VEE DRUGSTORE #4 (7025) / CEDAR RAPIDS,Champions,4825 JOHNSON AVE NW,LINN,-91.7334,41.96838
2575,HY-VEE FOOD STORE #1 / WATERLOO,Champions,2834 ANSBOROUGH AVE,BLACK HAWK,-92.37665,42.47177
4404,KUM & GO #292 / ANKENY,Big Spenders,1825 N ANKENY BLVD,POLK,-93.60023,41.74681
4810,KUM & GO #518 / ANKENY,Big Spenders,3603 NE OTTERVIEW CIRCLE,POLK,-93.57212,41.76177
5230,POINT LIQUOR & TOBACCO,Champions,"3221, CENTER POINT RD NE",LINN,-91.66371,42.01143
4098,WAL-MART 1475 / WASHINGTON,Champions,2485 HWY 92,WASHINGTON,-91.6612,41.29676
6264,MLK LIQUOR LLC / DES MOINES,Champions,3424 MARTIN LUTHER KING JUNIOR PARKWAY,POLK,-93.65133,41.62685
6301,JET STOP BONAPARTE / BONAPARTE,Big Spenders,202 WASHINGTON STREET,VAN BUREN,-91.80163,40.69903
4201,FAREWAY STORES #022 / SIOUX CITY,Champions,4040 WAR EAGLE DR,WOODBURY,-96.46137,42.49481
2627,HY-VEE WINE & SPIRITS #1 / MLK,Champions,3330 MARTIN LUTHER KING JR PKWY,POLK,-93.65088,41.62615
3682,JUMBO'S,Big Spenders,110 E MAIN ST,KOSSUTH,-93.99027,43.08835
3842,BANCROFT LIQUOR STORE,Champions,107 NORTH PORTLAND STREET,KOSSUTH,-94.21799,43.29355
3829,GARY'S FOODS / MT VERNON,Champions,715  1ST AVE S,LINN,-91.42159,41.91746
5876,DA BOOZE BARN / WEST BEND,Big Spenders,108 S BROADWAY,PALO ALTO,-94.44516,42.95923
6019,CASEY'S GENERAL STORE #3888 / ANKENY,Champions,1024 E 1ST ST,POLK,-93.58161,41.73239
2594,HY-VEE FOOD STORE / SIOUX CITY,Champions,4500 SERGEANT ROAD,WOODBURY,-96.34718,42.44756
3628,WAL-MART 1528 / CEDAR RAPIDS,Champions,2645 BLAIRS FERRY RD NE,LINN,-91.68192,42.03473
4135,FAREWAY STORES #925 / ALTOONA,Champions,620 SE 8TH ST,POLK,-93.4586,41.64349
4767,CASEY'S GENERAL STORE #3075 / ANKENY,Big Spenders,6981 NE 14TH ST,POLK,-93.60065,41.68795
5127,PRICE CHOPPER  /  INGERSOLL,Champions,3425 INGERSOLL AVE,POLK,-93.66328,41.58633
4730,WALGREENS #05944 / JOHNSTON,Big Spenders,6200 MERLE HAY RD,POLK,-93.69772,41.67348
10017,KWIK STAR #1119 / EMMETSBURG,Big Spenders,1303 MAIN ST,PALO ALTO,-94.66843,43.11202
5993,CASEY'S GENERAL STORE #3396 / SIGOURNEY,Big Spenders,100 E JACKSON ST,KEOKUK,-92.20456,41.3369
2596,HY-VEE OTTUMWA#2,Need Attention,2453 NORTH COURT,WAPELLO,-92.40811,41.04971
6057,KUM & GO #0731 / DES MOINES,Champions,3104 UNIVERSITY AVE,POLK,-93.65986,41.60007
5889,SUPER QUICK LIQUOR #1800 / WDM,Champions,1800 22ND ST,POLK,-93.7366,41.59907
4673,SONNY'S SUPER MARKET / WEST POINT,Champions,327 5TH ST,LEE,-91.45245,40.71706
5501,QUIK TRIP #530 / EUCLID,Potential Loyalist,1424 E EUCLID AVE,POLK,-93.59897,41.62837
4200,FAREWAY STORES #019 / SIOUX CITY,Champions,4016 INDIAN HILLS DR,WOODBURY,-96.37328,42.53851
5072,PEP STOP,Big Spenders,"901, E WASHINGTON ST",HENRY,-91.54115,40.96425
5246,CASEY'S GENERAL STORE #3476 / FOREST,Big Spenders,1132 HWY  69 SOUTH,HANCOCK,-93.63441,43.25574
4406,KUM & GO #4020 / ANKENY,Big Spenders,1910 SW WHITE BIRCH CIRCLE,POLK,-93.62657,41.70247
5301,YESWAY STORE # 10012/ OTTUMWA,Big Spenders,2508 COURT ST N,WAPELLO,-92.40912,41.05178
3877,TARGET STORE T-2041 / DES MOINES,Champions,5901 DOUGLAS AVE,POLK,-93.69941,41.62957
4582,JIFFY #926 / SPIRIT LAKE,Champions,"2402, 17TH ST",DICKINSON,-95.12549,43.42285
5564,CASEY'S GENERAL STORE #2785 / ANKENY,Big Spenders,1602 W 1ST ST,POLK,-93.62195,41.73224
6293,JET STOP WEST POINT / WEST POINT,Need Attention,703 AVENUE D,LEE,-91.44855,40.71667
3521,AMERISTAR CASINO / COUNCIL BLUFFS,Champions,2200 RIVER ROAD,POTTAWATTAMIE,-95.90691,41.24039
5386,CASEY'S GENERAL STORE # 2494/ EAGLE GROVE,Big Spenders,200 S COMMERCIAL AVE,WRIGHT,-93.90448,42.66278
5827,CASEY'S GENERAL STORE #2636 / KEOKUK,Big Spenders,3530 MAIN ST,LEE,-91.41035,40.42268
5635,"BREW, GAS, COFFEE, SPIRIT, CIGARATTE",Big Spenders,404  11TH ST,WOODBURY,-95.78529,42.48222
4312,I-80 LIQUOR / COUNCIL BLUFFS,Champions,2411 S 24TH ST #1 PO STN RR,POTTAWATTAMIE,-95.87857,41.23811
3626,WAL-MART 2714 / SPENCER,Champions,500  11TH ST,CLAY,-95.15207,43.14863
4453,SID'S GAS AND GROCERIES,Big Spenders,"1116, HWY 69 SOUTH",WINNEBAGO,-93.63441,43.25575
6097,BREW OIL #51 / SANBORN,Big Spenders,101 W 7TH ST,O'BRIEN,-95.65585,43.18599
4073,"UPTOWN LIQUOR, LLC",Champions,306 HWY 69 SOUTH,WINNEBAGO,-93.63329,43.2615
6187,MILL CREEK LIQUORS / PAULLINA,Need Attention,132 NORTH MAIN STREET,O'BRIEN,-95.68771,42.98148
6048,MOD / FORT MADISON,Big Spenders,1531 AVE H,LEE,-91.32608,40.63018
5254,DISCOUNT LIQUOR,Champions,2933 1ST AVE SE,LINN,-91.63485,42.0071
4517,CASEY'S GENERAL STORE #2767 / CEDAR RAPIDS,Potential Loyalist,3434 1ST AVE NE,LINN,-91.63499,42.01309
4268,FAREWAY STORES #531 / ALGONA,Big Spenders,1905 HIGHWAY 18 E,KOSSUTH,-94.21405,43.0828
5287,YESWAY STORE # 1029/ CLARION,Need Attention,300 CENTRAL AVE W,WRIGHT,-93.7356,42.73162
4893,CASEY'S GENERAL STORE #3098 / WDM,Potential Loyalist,105 GRAND AVE,POLK,-93.70419,41.58307
6299,CASEY'S #3953 / DES MOINES,Potential Loyalist,3121 FOREST AVENUE,POLK,-93.66063,41.60442
5937,CARSTENSEN'S MEAT AND GROCERY / LAKE PARK,Big Spenders,201 MARKET ST N,DICKINSON,-95.32129,43.4549
4382,KUM & GO #8 / 8TH ST / WDM,Big Spenders,1293 8TH ST.,POLK,-93.71323,41.59015
2233,FORBES LIQUOR LOCKER / REMI,Need Attention,2508 ENTERPRISE AVE,DICKINSON,-95.1268,43.41662
5448,FAREWAY STORES #177/ FORT MADISON,Champions,1820 AVENUE H,LEE,-91.33115,40.63024
5810,CASEY'S GENERAL STORE #2576 / WHAT CHEER,Big Spenders,410 S BARNES ST,KEOKUK,-92.35467,41.39882
5822,CASEY'S GENERAL STORE #2836 / MONROE,Big Spenders,509 S MONROE ST,JASPER,-93.10176,41.51775
4446,QUIK TRIP #513 / URBANDALE,Champions,4600 MERLE HAY ROAD,POLK,-93.69859,41.64444
2711,HY-VEE GAS #2 / OTTUMWA,Big Spenders,2457 N COURT ST,WAPELLO,-92.40807,41.04883
4971,FAREWAY STORES #138 / PLEASANT HILL,Champions,"5500, E UNIVERSITY AVE",POLK,-93.50666,41.59911
3656,TARGET STORE T-1767 / ANKENY,Champions,2135 SE DELAWARE AVE,POLK,-93.58112,41.70851
4591,CASEY'S GENERAL STORE #3052 / CLARION,Big Spenders,"222, CENTRAL AVE",WRIGHT,-93.73066,42.73168
3707,TARGET STORE T-1768 / CEDAR RAPIDS,Champions,1030 BLAIRS FERRY RD,LINN,-91.65109,42.03521
5763,CASEY'S GENERAL STORE #1374 / COLFAX,Big Spenders,501 W STATE ST,JASPER,-93.25194,41.67359
3045,BRITT FOOD CENTER,Big Spenders,8 2ND ST NW,HANCOCK,-93.80256,43.09867
6099,BREW OIL #29 / EMMETSBURG,Big Spenders,2401 MAIN ST,PALO ALTO,-94.68195,43.11196
6338,TOBACCO HUT PLUS US GAS / DES MOINES,Champions,3000 SW 9TH STREET,POLK,-93.6257,41.55788
5762,CASEY'S GENERAL STORE #1329 / ESTHERVILLE,Big Spenders,8 CENTRAL AVE,EMMET,-94.8436,43.40184
5684,FIVE CORNERS LIQUOR & WINE,Champions,809 E 18TH ST,BLACK HAWK,-92.43686,42.52138
4368,KUM & GO #570 / JOHNSTON,Big Spenders,5800 NORTHGLEN DR,POLK,-93.69849,41.68273
5062,CASEY'S GENERAL STORE #2318 / MONTRO,Big Spenders,"111, MAIN ST",LEE,-91.41497,40.53226
4877,WORLD LIQUOR & TOBACCO,Champions,1775 NW 86TH ST,POLK,-93.73588,41.60775
3663,WAL-MART 1496 / WATERLOO,Champions,1334 FLAMMANG DR,BLACK HAWK,-92.33011,42.46002
5806,CASEY'S GENERAL STORE #1159 / CORRECTIONVILLE,Need Attention,524 11TH ST,WOODBURY,-95.78308,42.4822
4507,CASEY'S GENERAL STORE #2902 / SPENCER,Big Spenders,411 W 18TH,CLAY,-95.151,43.15559
6238,WASHINGTON LIQUOR AND TOBACCO OUTLET / WASHINGTON,Big Spenders,304 WEST MADISON STREET,WASHINGTON,-91.69465,41.29647
3811,WAL-MART 1431 / KEOKUK,Champions,300 NORTH PARK DR,LEE,-91.40788,40.41712
4154,FAREWAY STORES #055 / HIAWATHA,Big Spenders,885 MILLER RD,LINN,-91.70229,42.04626
4733,WALGREENS #03773 / URBANDALE,Need Attention,4600 86TH ST,POLK,-93.73648,41.64398
5099,CASEY'S GENERAL STORE #2164 / ANKENY,Big Spenders,3505 N  ANKENY BLVD,POLK,-93.59968,41.76043
6271,KIMMES KINGSLEY COUNTRY STORE #16 / KINGSLEY,Big Spenders,109 MAIN ST.,PLYMOUTH,-95.96733,42.58712
3447,SAM'S CLUB 6432 / SIOUX CITY,Champions,4201 S. YORK ST.,WOODBURY,-96.37183,42.43391
3622,WAL-MART 1415 / SPIRIT LAKE,Champions,2600 HWY 71,DICKINSON,-95.12642,43.41565
4642,LIQUOR AND TOBACCO OUTLET / UNIV AVE WATERLOO,Need Attention,2844 UNIVERSITY AVE,BLACK HAWK,-92.38317,42.49851
5146,FAREWAY STORES #153  /  W DES MOINES,Champions,329 GRAND AVE,POLK,-93.70708,41.58271
4296,CIRCLE B MARKET,Big Spenders,111 MAIN ST,VAN BUREN,-91.9624,40.72938
4505,CASEY'S GENERAL STORE #2816 / JOHNSTON,Big Spenders,6417 NORTHGLEN DR,POLK,-93.70603,41.68789
4802,WALGREENS #07452 / DES MOINES,Potential Loyalist,4415 DOUGLAS AVE,POLK,-93.67882,41.6295
6115,CASEY'S #3920 / MOUNT PLEASANT,Big Spenders,2105 E WASHINGTON ST,HENRY,-91.52381,40.96073
4743,FAMILY FARE #791,Champions,1801 VALLEY VIEW DR,POTTAWATTAMIE,-95.81799,41.24404
5744,CASEY'S GENERAL STORE #1624 / WASHINGTON,Big Spenders,1002 W MADISON ST,WASHINGTON,-91.70444,41.29656
6034,THREE DOORS DOWN LIQUOR,Big Spenders,417 BROAD ST.,KOSSUTH,-94.42304,43.06358
4197,FAREWAY STORES #014 / SERGEANT BLUFF,Champions,700  1ST ST,WOODBURY,-96.35301,42.40049
4487,CASEY'S GENERAL STORE #2787 / CEDAR RAPIDS,Big Spenders,1661 32ND ST NE,LINN,-91.66236,42.01049
5073,"WILLIAMS BOULEVARD SERVICE, INC.",Potential Loyalist,"2601, WILLIAMS BLVD SW",LINN,-91.7069,41.96458
4300,FAREWAY STORES #625 / OSKALOOSA,Champions,311  3RD AVE W,MAHASKA,-92.64806,41.2926
4556,CASEY'S GENERAL STORE #2552 / GOLDFIELD,Big Spenders,319 E HWY 3,WRIGHT,-93.91698,42.73159
6197,MOUNT PLEASANT FOOD & LIQUOR / MT PLEASANT,Champions,309 W. WASHINGTON ST.,HENRY,-91.55711,40.96585
5338,KUM & GO #539/ NW 2ND AVE,Potential Loyalist,5050 NW 2ND AVE,POLK,-93.62108,41.6518
6326,BEST DEALS / WATERLOO,Champions,1459 ANSBOROUGH AVENUE,BLACK HAWK,-92.37697,42.49308
2571,HY-VEE FOOD STORE #2 / WATERLOO,Champions,2181 LOGAN AVE,BLACK HAWK,-92.33756,42.53048
5928,CASEY'S GENERAL STORE #1762 / ALGONA,Big Spenders,602 E STATE STREET,KOSSUTH,-94.23021,43.06887
5273,CASEY'S GENERAL STORE # 2598/ PELLA,Big Spenders,414 S CLARK STREET,MARION,-92.912281,41.392871
4783,CASEY'S GENERAL STORE #1684 / EMMETSBURG,Big Spenders,2406 MAIN ST,PALO ALTO,-94.68209,43.11196
6295,BOB & SCOTT'S / PRIMGHAR,Big Spenders,110 1ST STREET NORTHEAST,O'BRIEN,-95.62666,43.08725
3549,QUICKER LIQUOR STORE,Champions,1414 48TH ST,LEE,-91.37319,40.62423
6100,MOES MART #3 / COUNCIL BLUFFS,Big Spenders,154 BENNETT AVE,POTTAWATTAMIE,-95.82035,41.25284
4315,FAREWAY STORES #554 / WASHINGTON,Big Spenders,301 NORTH MARION AVE,WASHINGTON,-91.69305,41.30199
6305,JET STOP HOUGHTON / HOUGHTON,Need Attention,512 MAIN STREET,LEE,-91.60952,40.78469
5835,CASEY'S GENERAL STORE #3961 / MARCUS,Need Attention,406 HWY 3,CHEROKEE,-95.7986,42.80795
4191,FAREWAY STORES #995 / PELLA,Big Spenders,2010 WASHINGTON ST,MARION,-92.94174,41.41217
6256,821 SQ LIQUOR / DES MOINES,Champions,821 EAST EUCLID AVENUE,POLK,-93.60758,41.62773
5571,CASEY'S GENERAL STORE #2782 / CEDAR RAPIDS,Big Spenders,1495 BLAIRS FERRY RD NE,LINN,-91.65787,42.03528
5097,FAREWAY STORES #151 / CEDAR RAPIDS,Potential Loyalist,3717 1ST AVE SE,LINN,-91.63454,42.01692
10050,TOBACCO HUT / ANKENY,Big Spenders,121 N. ANKENY BLVD.,POLK,-93.59985,41.73307
5604,CASEY'S GENERAL STORE #1599 / MT VERNON,Potential Loyalist,323 HWY 30 W,LINN,-91.42485,41.91621
5469,CHROME TRUCK STOP,Big Spenders,211 HIGHWAY 18 E.,KOSSUTH,-94.23677,43.08281
3790,WAL-MART 0784 / MT PLEASAN,Champions,1045 N GRAND AVE,HENRY,-91.53949,40.97954
4021,WAL-MART 0985 / FAIRFIELD,Champions,2701 W BURLINGTON AVE,JEFFERSON,-91.99342,41.00638
2684,HY-VEE - FOREST CITY,Champions,315 HIGHWAY 69 N,WINNEBAGO,-93.63235,43.26804
5489,CASEY'S GENERAL STORE #1550 / WINFIELD,Big Spenders,201 N LOCUST,HENRY,-91.43792,41.12993
5428,CASEY'S GENERAL STORE # 2789/ CEDAR RAPIDS,Big Spenders,888 VERNON VALLEY DRIVE SE,LINN,-91.55361,41.97709
5798,CASEY'S GENERAL STORE #3528 / WASHINGTON,Big Spenders,1730 E WASHINGTON ST,WASHINGTON,-91.67049,41.29814
6214,CASEY'S #3934 / ANKENY,Big Spenders,1515 SE CORPORATE WOODS DR,POLK,-93.57297,41.67985
4429,KUM & GO #32 / COLFAX,Big Spenders,1200 N WALNUT ST,JASPER,-93.24741,41.68613
5869,TOBACCO OUTLET PLUS #507 - URBANDALE,Champions,6941 DOUGLAS AVE,POLK,-93.71198,41.62938
5940,LAKELAND EZ STOP / RUTHVEN,Big Spenders,3474 OLD HWY 18,PALO ALTO,-94.89854,43.12648
6342,TOBACCO MART / URBANDALE,Champions,6535 DOUGLAS AVE,POLK,-93.70716,41.62968
5128,PRICE CHOPPER  /  BEAVER #1310,Champions,1819 BEAVER AVE,POLK,-93.67302,41.61105
6289,DASHMART / URBANDALE,Need Attention,3180 100TH STREET,POLK,-93.75582,41.62396
5626,CORWITH FARM SERVICE,Need Attention,205 NW ELM ST,HANCOCK,-93.95746,42.99278
9052,173 CRAFT DISTILLERY (ET),Need Attention,306 1ST AVENUE NORTH,CERRO GORDO,-93.38241,43.1369
4234,FAREWAY STORES #788 / SPENCER,Big Spenders,104 E EIGHTH ST,CLAY,-95.14338,43.14577
5877,CASEY'S GENERAL STORE #1659 / ANKENY,Big Spenders,302 S ANKENY BLVD,POLK,-93.60078,41.72912
4247,FAREWAY STORES #879 / BELMOND,Champions,512 RIVER AVE N,WRIGHT,-93.61679,42.85054
5894,WHISKEY BUSINESS / ALLERTON,Potential Loyalist,104 N PRAIRIE ST,WAYNE,-93.36933,40.70677
10029,ROYAL MART / DES MOINES,Champions,111 SOUTHWEST 63RD STREET,POLK,-93.70334,41.5788
5655,ONE STOP SHOP #3 / ALGONA,Champions,220 S PHILLIPS ST,KOSSUTH,-94.22686,43.06723
3654,THE BEVERAGE SHOP / BELMOND,Big Spenders,207 E MAIN ST,WRIGHT,-93.61523,42.8459
4150,FAREWAY STORES #951 / WATERLOO,Champions,40  W SAN MARNAN,BLACK HAWK,-92.35741,42.4575
4609,KUM & GO #579 / ANKENY,Big Spenders,165 SW MAGAZINE RD,POLK,-93.60161,41.71729
2702,HY-VEE GAS #1 / ANKENY,Big Spenders,414 N ANKENY BLVD,POLK,-93.60093,41.73519
2651,HY-VEE / WAVERLY,Champions,1311 4 STREET SW,BREMER,-92.47549,42.71222
6145,THE DEPOT VAN HORNE,Big Spenders,101 1ST AVE,BENTON,-92.08606,42.00738
4439,CENTER POINT FOODS,Big Spenders,800 FORD LANE,LINN,-91.7761,42.17772
4299,HOMETOWN MARKET WATERHOUSE / CENTRAL CITY,Need Attention,9 WATERHOUSE AVE,LINN,-91.53132,42.19927
4866,TOBACCO HUT #18 / COUNCIL BLUFFS,Champions,429 VETERANS MEMORIAL,POTTAWATTAMIE,-95.85186,41.21919
2582,HY-VEE #2 FOOD STORE / MASON CITY,Champions,551 S ILLINOIS AVE,CERRO GORDO,-93.17116,43.14639
5859,LIQUOR TOBACCO & GROCERY - MASON CITY,Champions,18 NORTH MONROE AVENUE,CERRO GORDO,-93.20865,43.1523
4102,FAREWAY STORES #386 / AMES,Champions,619 BURNETT AVE,STORY,-93.61541,42.02743
3973,MMDG SPIRITS / AMES,Champions,126A WELCH AVE,STORY,-93.65013,42.02179
6068,STAR CONVENIENCE #115/ FORT DODGE,Potential Loyalist,115 N 22ND ST,WEBSTER,-94.168,42.50787
4738,CASEY'S GENERAL STORE #2284 / COUNCIL BLUFFS,Big Spenders,"1030, VETERAN MEMORIAL HWY",POTTAWATTAMIE,-95.8603,41.21983
4674,KUM & GO #227 / AMES,Big Spenders,2108 ISAAC NEWTON DR,STORY,-93.5858,42.00956
3528,SUPER TARGET T-0804 MASON CITY,Big Spenders,3450  4TH ST SW,CERRO GORDO,-93.25294,43.14869
5941,PRIME MART - CEDAR FALLS,Big Spenders,2728 CENTER ST,BLACK HAWK,-92.45598,42.56105
4103,FAREWAY STORES #093 / AMES,Champions,3619 STANGE RD,STORY,-93.64507,42.05712
2201,HAPPY'S WINE & SPIRITS WHOLESALE,Champions,5925 UNIVERSITY AVE,BLACK HAWK,-92.42851,42.51302
2515,HY-VEE FOOD STORE #1 (1410) / MASON CITY,Champions,2400 4TH ST SW,CERRO GORDO,-93.2361,43.14843
5135,FAREWAY STORES #155 / HUXLEY,Champions,911 HWY 69,STORY,-93.60713,41.9012
3477,SAM'S CLUB 6472 / COUNCIL BLUFFS,Champions,3221 MANAWA CENTRE DR,POTTAWATTAMIE,-95.84725,41.22763
5314,TOBACCO HUT & LIQUOR,Champions,3134 MANAWA CENTER DR. # 9,POTTAWATTAMIE,-95.84749,41.2287
4590,CASEY'S GENERAL STORE #3045 / CEDAR FALLS,Big Spenders,"601, MAIN ST",BLACK HAWK,-92.44559,42.53296
5915,THE HUT / COUNCIL BLUFFS,Potential Loyalist,1925 W BROADWAY,POTTAWATTAMIE,-95.87297,41.26156
10091,CASEY'S #6116 / COUNCIL BLUFFS,Potential Loyalist,15 NORTH 16TH STREET,POTTAWATTAMIE,-95.86752,41.26256
3629,WAL-MART 1965 / COUNCIL BLUFFS,Champions,3200 MANAWA DR,POTTAWATTAMIE,-95.84887,41.22617
4675,KUM & GO #1113 / AMES,Big Spenders,2801 E 13TH ST,STORY,-93.57572,42.03451
5391,CASEY'S GENERAL STORE # 1896/ CLEAR LAKE,Potential Loyalist,202 HWY 18,CERRO GORDO,-93.38829,43.14306
4015,WAL-MART 0749 / AMES,Champions,3015 GRAND AVE,STORY,-93.62062,42.05207
3880,TARGET STORE T-2454 / COUNCIL BLUFFS,Big Spenders,3804 METRO DR,POTTAWATTAMIE,-95.8377,41.22102
4119,TARGET STORE T-2526 / CEDAR FALLS,Big Spenders,214 VIKING PLAZA DR,BLACK HAWK,-92.44431,42.48292
5465,KUM & GO #1215 / AMES,Champions,4506 LINCOLN WAY,STORY,-93.56281,42.02299
4626,KWIK SHOP #527 / COUNCIL BLUFFS,Potential Loyalist,"3632, AVENUE G",POTTAWATTAMIE,-95.90609,41.2683
5453,CASEY'S GENERAL STORE # 2817/ GRISWOLD,Big Spenders,900 MAIN ST.,CASS,-95.13687,41.23467
5425,SPIRITS LIQUOR / GRIMES,Big Spenders,109 E 1ST STREET,POLK,-93.79382,41.68838
6220,PRIME WINE AND SPIRITS / MASON CITY,Potential Loyalist,1104 NORTH FEDERAL AVENUE,CERRO GORDO,-93.2011,43.16219
6144,NORTHSIDE LIQUOR AND GROCERY / MASON CITY,Champions,1303 N FEDERAL,CERRO GORDO,-93.20109,43.16367
4091,FAREWAY STORES #705 / CLEAR LAKE,Champions,910 HWY 18 W,CERRO GORDO,-93.40042,43.14227
5849,SUPER QUICK STOP - COUNCIL BLUFFS,Big Spenders,2800 TWIN CITY DR. SUITE 10,POTTAWATTAMIE,-95.8902,41.21624
5195,CASEY'S GENERAL STORE #3203 / COUNCI,Big Spenders,"1928, SHERWOOD DR",POTTAWATTAMIE,-95.81181,41.27836
4159,FAREWAY STORES #073 / COUNCIL BLUFFS,Potential Loyalist,310 MCKENZIE AVE,POTTAWATTAMIE,-95.81894,41.28021
2613,HY-VEE FOOD STORE #1 / COUNCIL BLUFFS,Champions,2323 W BROADWAY,POTTAWATTAMIE,-95.87957,41.26193
2835,CVS PHARMACY #8538 / CEDAR FALLS,Need Attention,2302 WEST FIRST ST,BLACK HAWK,-92.47279,42.53991
5652,AVENUE G STORE / COUNCIL BLUFFS,Potential Loyalist,1602 AVENUE G,POTTAWATTAMIE,-95.86797,41.26802
4969,LAKE LIQUORS WINE AND SPIRITS,Champions,910 N 8TH ST W,CERRO GORDO,-93.39665,43.14276
4723,WALGREENS #10557 / CEDAR FALLS,Need Attention,2509 WHITETAIL DR,BLACK HAWK,-92.4765,42.54055
2652,HY-VEE DRUGSTORE / MASON CITY,Champions,875  4TH ST SW,CERRO GORDO,-93.21409,43.1483
4503,CASEY'S GENERAL STORE #38 / TREYNOR,Big Spenders,102 W MAIN ST,POTTAWATTAMIE,-95.6174,41.23249
6304,WORLD LIQUOR & TOBACCO + VAPORS / AMES,Champions,111 DUFF AVENUE,STORY,-93.61038,42.02358
4104,FAREWAY STORES #491 / MASON CITY,Potential Loyalist,400 NORTH DELAWARE AVE,CERRO GORDO,-93.19948,43.15553
6012,CASEY'S GENERAL STORE #1893 / MASON CITY,Big Spenders,1607 S FEDERAL AVE,CERRO GORDO,-93.2011,43.13595
4631,THUNDER RIDGE AMPRIDE,Champions,2425 WHITETAIL DRIVE,BLACK HAWK,-92.47498,42.53996
5861,TAYLOR QUIK PIK - COUNCIL BLUFFS,Big Spenders,14151 WABASH AVENUE,POTTAWATTAMIE,-95.81776,41.22046
4509,AJ'S LIQUOR II,Champions,2515 CHAMBERLAIN,STORY,-93.65084,42.02144
5913,CASEY'S GENERAL STORE #1427 / CLEAR LAKE,Big Spenders,6 PLAZA DR,CERRO GORDO,-93.3605,43.14588
4516,CASEY'S GENERAL STORE #1569 / OAKLAND,Big Spenders,205 BROWN ST,POTTAWATTAMIE,-95.39974,41.30496
4740,WALGREENS #04405 / COUNCIL BLUFFS,Potential Loyalist,2508 W BROADWAY,POTTAWATTAMIE,-95.88311,41.26196
5536,THE FILLING STATION / AMES,Big Spenders,2400 UNIVERSITY BLVD,STORY,-93.63946,42.00072
3889,WAL-MART 1005 / WAVERLY,Champions,700  29 ST SW,BREMER,-92.47388,42.70032
3713,WAL-MART 0810 / MASON CITY,Champions,4151 4TH ST SW,CERRO GORDO,-93.26371,43.14821
3728,BREWSKI'S BEVERAGE,Big Spenders,726 CREEK TOP,POTTAWATTAMIE,-95.85481,41.26236
5280,YESWAY STORE # 10011/ MASON CITY,Big Spenders,1920 FEDERAL AVE S,CERRO GORDO,-93.20111,43.1332
4668,RANDY'S NEIGHBORHOOD MARKET / CLEARLAKE,Potential Loyalist,20 SOUTH 4TH ST,CERRO GORDO,-93.38038,43.13594
6224,MID TOWN LIQUOR & VAPE / MASON CITY,Potential Loyalist,824 NORTH FEDERAL AVENUE,CERRO GORDO,-93.20108,43.15973
3514,KAREN'S SPIRITS AND WINE,Champions,328  2ND AVE S,WEBSTER,-94.19245,42.50233
6194,HY-VEE DOLLAR FRESH / NEVADA,Champions,1622 FAWCETT PARKWAY,STORY,-93.43801,42.01266
2712,HY-VEE / DECORAH,Champions,915 SHORT ST #107,WINNESHIEK,-91.79731,43.29116
4932,B AND B WEST,Big Spenders,3105 HUDSON RD,BLACK HAWK,-92.46582,42.5092
2459,JUBILEE FOODS,Potential Loyalist,200 STATE ST,GUTHRIE,-94.50528,41.67725
5648,FAREWAY STORES #189 / AMES,Big Spenders,3720 LINCOLN WAY,STORY,-93.66893,42.02286
3644,WAL-MART 2764 / ALTOONA,Champions,3501 8TH ST SW,POLK,-93.50478,41.64419
4511,SUPER QUICK / SE 30 DM,Champions,303 SE 30TH ST,POLK,-93.5583,41.58527
2560,HY-VEE FOOD STORE (1396) / MARION,Champions,3600 BUSINESS HWY 151 EAST,LINN,-91.57211,42.03599
2618,HY-VEE DRUGSTORE #6 / CEDAR RAPIDS,Champions,505 BOYSON RD NE,LINN,-91.63912,42.04672
6090,CIRCLE K #22654125 / PERRY,Big Spenders,1219 1ST AVE,DALLAS,-94.10659,41.84022
2649,HY-VEE #3 / DUBUQUE,Champions,400 LOCUST ST,DUBUQUE,-90.66657,42.49736
5327,MEGA SAVER #3540 / COUNCIL BLUFFS,Champions,3540 W BROADWAY,POTTAWATTAMIE,-95.90376,41.26218
3868,WAL-MART 3630 / MARION,Champions,5491 BUSINESS HWY 151,LINN,-91.55323,42.03567
2679,HY-VEE FAST & FRESH/ALTOONA,Potential Loyalist,3950 PRARIE FIRE NW,POLK,-93.50942,41.65195
2505,HY-VEE WINE AND SPIRITS (1038) / BOONE,Champions,1111  8TH ST,BOONE,-93.87572,42.06382
5333,FAREWAY STORES #166/ ANAMOSA,Big Spenders,402 E MAIN,JONES,-91.28133,42.10826
6209,HY-VEE / GRIMES,Champions,351 NORTHEAST GATEWAY DRIVE,POLK,-93.77819,41.69155
6201,NEIGHBORHOOD TOBACCO OUTLET / MARION,Champions,2500 7TH AVENUE,LINN,-91.58559,42.03326
4753,CASEY'S GENERAL STORE #2521 / ADAIR,Big Spenders,110 S 5TH ST,ADAIR,-94.64347,41.49592
6126,CASH SAVER #34 / DES MOINES,Potential Loyalist,4121 FLEUR DRIVE,POLK,-93.64493,41.54698
5801,CASEY'S GENERAL STORE #2647 / CENTER POINT,Big Spenders,4397 N CENTER POINT,LINN,-91.77432,42.18243
4930,CASEY'S GENERAL STORE #3251 / BOONE,Big Spenders,1303 SE MARSHALL ST,BOONE,-93.87311,42.0351
5950,CASEY'S GENERAL STORE #3898 / ANAMOSA,Big Spenders,23485 COUNTY ROAD E34,JONES,-91.3342,42.07267
5322,AVOCA FOOD LAND,Potential Loyalist,212 WEST WOOD ST.,POTTAWATTAMIE,-95.33793,41.48807
4171,"BROTHERS MARKET, INC. / CASCADE",Big Spenders,105 SE NIXON ST,DUBUQUE,-90.99372,42.30608
5106,RANDY'S NEIGHBORHOOD MARKET / DEWITT,Potential Loyalist,622 10TH  ST,CLINTON,-90.54014,41.82517
10016,KWIK STAR #1180 / PERRY,Need Attention,511 1ST AVE,DALLAS,-94.10654,41.83261
4401,KUM & GO #503 / MARION,Big Spenders,3215 7TH AVE,LINN,-91.57712,42.03517
3872,TARGET STORE T-0086 / DUBUQUE,Champions,3500 DODGE ST,DUBUQUE,-90.72368,42.49182
6140,ROYAL FOOD & LIQUOR / DES MOINES,Potential Loyalist,1443 2ND AVE,POLK,-93.61979,41.60523
5077,WAL-MART 3150 / COUNCIL BLUFFS,Champions,1800 N 16TH ST,POTTAWATTAMIE,-95.86907,41.27938
6129,EAST END LIQUOR / DES MOINES,Champions,3804 HUBBELL AVE,POLK,-93.54133,41.63086
10020,LOCAL LIQUOR / PANORA,Potential Loyalist,603 EAST MAIN STREET,GUTHRIE,-94.35706,41.69176
2591,HY-VEE WINE AND SPIRITS / ATLANTIC,Champions,1602 E 7TH ST,CASS,-94.99042,41.40387
5569,CASEY'S GENERAL STORE #2765 / CEDAR RAPIDS,Big Spenders,5050 NORTHLAND AVE NE,LINN,-91.6317,42.02848
4346,ROY'S FOODLAND,Champions,105 PEARL ST,BENTON,-91.86927,42.09422
4140,FAREWAY STORES #900 / EUCLID,Potential Loyalist,100 EUCLID AVE,POLK,-93.61897,41.6277
5253,THE CORNER STORE,Big Spenders,"4200, LEWIS ACCESS RD",LINN,-91.77471,42.18183
5803,CASEY'S GENERAL STORE #3333 / PLEASANT HILL,Potential Loyalist,5550 E UNIVERSITY AVE,POLK,-93.50411,41.59916
5177,CASEY'S GENERAL STORE #3204 / MINDEN,Big Spenders,33280 335TH ST,POTTAWATTAMIE,-95.54618,41.49559
4023,WAL-MART 1389 / BOONE,Champions,1515 SE MARSHALL ST,BOONE,-93.87029,42.03507
5268,THE DEPOT ATKINS,Big Spenders,"188, PARKRIDGE RD",BENTON,-91.86271,41.99265
3461,HOMETOWN FOODS / STUART,Potential Loyalist,607 S DIVISION ST,GUTHRIE,-94.31844,41.49769
4443,PALO MINI MART,Need Attention,1204 1ST ST,LINN,-91.79577,42.0702
3833,WAL-MART 3394 / ATLANTIC,Champions,1905 EAST 7TH ST,CASS,-94.9873,41.40387
5057,KUM & GO #535 / DES MOINES,Potential Loyalist,4960 E BROADWAY AVE,POLK,-93.51571,41.64427
5975,CASEY'S GENERAL STORE #1676 / CARLISLE,Potential Loyalist,1001 HWY 5,WARREN,-93.49702,41.49866
5471,WORLD LIQUOR & TOBACCO + VAPORS,Champions,1030 8TH ST,BOONE,-93.87692,42.06383
3732,NORTH SCOTT FOODS,Need Attention,425 E LECLAIRE RD,SCOTT,-90.57731,41.6547
6085,CIRCLE K #22654122 / BOONE,Need Attention,1704 S STORY ST,BOONE,-93.87931,42.03697
5382,CASEY'S GENERAL STORE # 2870/ ALTOONA,Potential Loyalist,1419 1ST AVE N,POLK,-93.46453,41.6627
4785,CASEY'S GENERAL STORE #2835 / AVOCA,Big Spenders,1019 N CHESTNUT ST,POTTAWATTAMIE,-95.33604,41.48552
4155,FAREWAY STORES #949 / MARION,Potential Loyalist,3300 10TH AVE,LINN,-91.57642,42.036
4599,QUIK TRIP #500 / HUBBELL DM,Potential Loyalist,3700 HUBBELL AVE,POLK,-93.54489,41.62901
2624,HY-VEE #2 / DUBUQUE,Champions,2395 NW ARTERIAL RD,DUBUQUE,-90.74103,42.51662
5922,CASEY'S GENERAL STORE #3896 / CENTER POINT,Big Spenders,696 GRAIN LN,LINN,-91.77762,42.17367
4757,EZ MART / BONDURANT,Potential Loyalist,1111 SE LINCOLN STREET,POLK,-93.45716,41.69254
5610,CASEY'S GENERAL STORE #2690 / ANAMOSA,Big Spenders,500 E MAIN ST,JONES,-91.28025,42.10827
4622,QUIK TRIP #544 / SE 14TH DM,Potential Loyalist,3941 SE 14TH ST,POLK,-93.59631,41.5487
6249,HY-VEE DOLLAR FRESH / MONTICELLO,Champions,122 NORTH MAIN STREET,JONES,-91.18403,42.2384
4880,CASEY'S GENERAL STORE #1567 / ANITA,Big Spenders,912 MAIN ST,CASS,-94.7678,41.44358
5572,CASEY'S GENERAL STORE #2790 / CEDAR RAPIDS,Big Spenders,588 BOYSON RD NE #110,LINN,-91.64163,42.04717
4633,KWIK SHOP #520 / CARTER LAKE,Big Spenders,1202 EAST LOCUST ST,POTTAWATTAMIE,-95.91415,41.28537
6195,DT LIQUOR LLC / DEWITT,Potential Loyalist,301 11TH STREET,CLINTON,-90.53436,41.82626
3678,"SMOKE SHOP, THE",Potential Loyalist,1918 SE 14TH ST,POLK,-93.59692,41.57103
3886,WAL-MART 0646 / ANAMOSA,Champions,101  115 ST,JONES,-91.26496,42.10165
4901,FAREWAY STORES #137 / POLK CITY,Champions,1101 SOUTH 5TH STREET,POLK,-93.7189,41.76387
3831,THE MARKET OF MADRID,Big Spenders,301 ANNEX RD,BOONE,-93.81536,41.87896
5191,CASEY'S GENERAL STORE #1534 / GUTHRI,Big Spenders,"100, N  5TH ST",GUTHRIE,-94.50235,41.67747
5082,CASEY'S GENERAL STORE #2365 / ATLANT,Potential Loyalist,911 SW 7TH ST,CASS,-95.02831,41.40146
4473,CASEY'S GENERAL STORE #92 / PANORA,Potential Loyalist,113 NE 3RD ST,GUTHRIE,-94.36133,41.69187
2612,HY-VEE STORE / PERRY,Champions,1215  141 ST,DALLAS,-94.10465,41.83027
4252,FAREWAY STORES #840 / MONTICELLO,Big Spenders,433 NORTH FARLEY STREET,JONES,-91.19145,42.24187
2478,PRAIRIE MEADOWS,Champions,ONE PRAIRIE MEADOWS DRIVE,POLK,-93.49319,41.6548
5575,CASEY'S GENERAL STORE #2919 / MARION,Big Spenders,340 MARION BLVD,LINN,-91.61357,42.03003
6089,CIRCLE K #22654124 / PERRY,Big Spenders,1115 HWY 141,DALLAS,-94.10569,41.83025
5777,CASEY'S GENERAL STORE #2610 / ATLANTIC,Big Spenders,1408 E 7TH ST,CASS,-94.99344,41.40385
4092,FAREWAY STORES #077 / NORWALK,Champions,1711 SUNSET DR,WARREN,-93.67487,41.48405
10028,DUAL STOP CARTER LAKE / CARTER LAKE,Big Spenders,109 EAST LOCUST STREET,POTTAWATTAMIE,-95.92899,41.28506
4334,FAREWAY STORES #114 / DUBUQUE,Champions,2050 JOHN F KENNEDY RD,DUBUQUE,-90.72042,42.50749
5050,FAREWAY STORES #147 / CARLISLE,Potential Loyalist,"1115, BLUESTEM DR",WARREN,-93.4994,41.49793
3870,TARGET STORE T-1939 / ALTOONA,Potential Loyalist,3414 8TH ST SW,POLK,-93.50433,41.64407
5507,QUIK TRIP #559 / FLEUR,Potential Loyalist,4021 FLEUR DR,POLK,-93.64493,41.54781
4601,KUM & GO #4110 / GUTHRIE DM,Potential Loyalist,2110 GUTHRIE AVE,POLK,-93.57903,41.61502
5910,ELDRIDGE MART,Champions,209 E. LE CLAIRE RD,SCOTT,-90.58153,41.6547
10073,FAREWAY STORES INC #229 / ODGEN,Big Spenders,302 WEST WALNUT STREET,BOONE,-94.03108,42.03904
5145,SOUTH SIDE FOOD MART,Potential Loyalist,1101 ARMY POST RD. SUITE A & B,POLK,-93.62857,41.5265
6082,CASEY'S #2654 / STUART,Potential Loyalist,708 S DIVISION ST,ADAIR,-94.3185,41.49644
5236,"GIGGLE JUICE LIQUOR STATION, LLC",Champions,600 W. MAIN ST.,JONES,-91.29085,42.10821
4361,QUIK TRIP #538 / NW 2ND / DSM,Potential Loyalist,4575 NW 2ND,POLK,-93.61922,41.64342
4370,KUM & GO #240 / NORTH AVE NORWALK,Potential Loyalist,530 NORTH AVE,WARREN,-93.68186,41.47536
4418,KUM & GO #1046 / WALNUT,Big Spenders,1709 ANTIQUE CITY DR,POTTAWATTAMIE,-95.22212,41.4941
10057,KWIK STAR #1186 / ALTOONA,Potential Loyalist,2030 21ST ST NW,POLK,-78.41659,40.51419
5375,CASEY'S GENERAL STORE # 3518/ DES MOINES,Potential Loyalist,1907 ARMY POST RD,POLK,-93.64171,41.52654
6118,CASH SAVER #33 / DES MOINES,Potential Loyalist,1320 E EUCLID AVE,POLK,-93.63664,41.62768
5982,CASEY'S GENERAL STORE #6 / ALTOONA,Big Spenders,407 8TH ST SW,POLK,-93.46872,41.64444
4934,CASEY'S GENERAL STORE #2811 / SPRINGVILLE,Big Spenders,605 6TH ST S,LINN,-91.44373,42.05085
5625,OASIS / DES MOINES,Big Spenders,5120 NE 14TH ST,POLK,-93.60102,41.65298
5208,OLSEN'S BP,Need Attention,"110, LOCUST ST",CASS,-95.01568,41.40923
4664,CASEY'S GENERAL STORE #24 / BOONE,Big Spenders,1127 STORY,BOONE,-93.88008,42.06765
4876,QUICK MART / HIAWATHA,Champions,"655, ROBBINS RD",LINN,-91.67299,42.04446
5239,LEFTY'S CONVENIENCE STORE INC.,Big Spenders,4649 HWY 13,LINN,-91.53264,42.19897
6052,CASEY'S GENERAL STORE #2568 / NORWALK,Potential Loyalist,1510 SUNSET DR,WARREN,-93.67517,41.48364
4654,KUM & GO #510 / STUART,Potential Loyalist,629 S DIVISION ST,ADAIR,-94.3185,41.49641
3944,SAM'S CLUB 4973 / DUBUQUE,Champions,4400 ASBURY RD,DUBUQUE,-90.73782,42.51529
5717,CASEY'S GENERAL STORE #3789,Potential Loyalist,2480 1ST AVE SOUTH,POLK,-93.46462,41.63712
4377,QUIK TRIP #562 / NE 14TH / DSM,Potential Loyalist,4801 NE 14TH ST,POLK,-93.60025,41.64827
10077,HAWKS SMOKE SHOP / MARION,Big Spenders,1396 7TH AVE,LINN,-91.59482,42.03331
4912,CASEY'S GENERAL STORE #2531 / ELDRIDGE,Potential Loyalist,"840, E LE CLAIRE RD",SCOTT,-90.57254,41.6547
5183,CASEY'S GENERAL STORE #77 / CASCADE,Big Spenders,717 1ST  AVE,DUBUQUE,-91.00528,42.3018
4953,TRI STOP,Need Attention,302 HWY 136,CLINTON,-90.81766,41.9675
5631,MARION MARKET & CAFE',Big Spenders,5005 10TH AVE,LINN,-91.5561,42.03571
5852,CASEY'S GENERAL STORE #2256 - DEWITT,Potential Loyalist,1515 11TH STREET,CLINTON,-90.55249,41.82572
3632,WAL-MART 2004 / DUBUQUE,Champions,4200 DODGE ST,DUBUQUE,-90.73504,42.48958
5499,KUM & GO #184 / ALTOONA,Potential Loyalist,1430 1ST AVE NORTH,POLK,-93.46467,41.66271
4577,CASEY'S GENERAL STORE #2551 / WOODWARD,Big Spenders,"906, S MAIN ST",DALLAS,-93.9222,41.84896
4464,PERFECT VALUE LIQUOR MART,Potential Loyalist,5B  LINCOLN AVE,SCOTT,-90.54787,41.69521
6288,MIDWEST FOOD & LIQUOR / PLEASANT HILL,Potential Loyalist,1250 COPPER CREEK DRIVE,POLK,-93.52439,41.60156
4433,KUM & GO #24 PLEASANT HILL,Potential Loyalist,5970 MORNING STAR CT,POLK,-93.49208,41.59794
5411,BLUEJAY MARKET,Big Spenders,2810 WILLS AVE,DALLAS,-94.08102,41.83847
5561,CASEY'S GENERAL STORE #32 / MADRID,Big Spenders,117 N KENNEDY AVE,BOONE,-93.81567,41.87763
4641,KUM & GO #573 / SE 14TH DM,Big Spenders,5830 SE 14TH ST,POLK,-93.63539,41.53178
4803,WALGREENS #07453 / DES MOINES,Potential Loyalist,104 E EUCLID AVE,POLK,-93.61718,41.62811
5858,TAYLOR QUIK PIK - SHELBY,Potential Loyalist,12 EAST STREET,POTTAWATTAMIE,-95.45117,41.501
4736,WALGREENS #03876 / MARION,Need Attention,1225 7TH AVE,LINN,-91.59637,42.0333
3465,HOMETOWN FOODS / PANORA,Potential Loyalist,601 E MAIN,GUTHRIE,-94.35701,41.69176
5738,CASEY'S GENERAL STORE #3291,Need Attention,5110 HWY 13 N,LINN,-91.52937,42.23857
4838,CASEY'S GENERAL STORE #2448 / OGDEN,Big Spenders,"102, W VETERANS DR",BOONE,-94.02839,42.03198
6064,CASEY'S GENERAL STORE #2676 / DES MOINES,Potential Loyalist,2106 ECHO VALLEY DR,POLK,-93.64559,41.5121
4849,C FRESH MARKET,Big Spenders,801 UNIVERSITY AVE,POLK,-93.6282,41.60081
4831,L & M GAS & GROCERY / BOONE,Big Spenders,"320, W MAMIE EISENHOWER AVE",BOONE,-93.89692,42.05932
9041,S&B FARMS DISTILLERY (ET),Big Spenders,212 E RAMSEY ST.,KOSSUTH,-94.21545,43.29297
5737,SUPER STOP & SHOP / BALDWIN,Big Spenders,5358 HWY 64,JACKSON,-90.83596,42.07326
5328,CORNERSTONE APOTHECARY / VAN HORNE,Need Attention,122 MAIN ST,BENTON,-92.09114,42.00834
5623,EASYGO,Champions,2723 GRAND AVE,POLK,-93.65409,41.58463
4678,FAREWAY STORES #124 / ADEL,Potential Loyalist,804 NILE KINNICK DR,DALLAS,-94.0168,41.61021
5149,B S MINI MART INC,Champions,"1900, SUMMER ST",DES MOINES,-91.11612,40.78899
4384,KUM & GO #2093 / ADEL,Big Spenders,409 NILE KINNICK DR,DALLAS,-94.01752,41.614
4067,FREEMAN FOODS,Big Spenders,268 8TH AVE,WASHINGTON,-91.83788,41.46503
4069,FAREWAY STORES #648 / OTTUMWA,Potential Loyalist,1325 ALBIA RD,WAPELLO,-92.44017,41.00934
4890,CASEY'S GENERAL STORE #3210 / URBANDALE,Potential Loyalist,4400 128TH ST,POLK,-93.79451,41.64237
2518,HY-VEE WINE AND SPIRITS (1544) / RED OAK,Champions,1607 NORTH BROADWAY,MONTGOMERY,-95.23278,41.01865
10037,WHISKEY WOLF LIQUOR / GLENWOOD,Champions,411 S LOCUST ST,MILLS,-95.74455,41.04203
6313,DANNYS TOBACCO & LIQUOR / GUTTENBERG,Potential Loyalist,531 U.S. 52,CLAYTON,-91.1005,42.78055
5252,FREEMAN FOODS OF NORTH ENGLISH,Big Spenders,"119, MAIN ST",IOWA,-92.07641,41.51441
5990,CASEY'S GENERAL STORE #1610 / KNOXVILLE,Potential Loyalist,203 S LINCOLN ST,MARION,-93.1095,41.31769
3721,WAL-MART 0913 / DECORAH,Champions,1798 OLD STAGE RD,WINNESHIEK,-91.75289,43.2902
5110,RAMSEY'S MARKET LIQUOR,Potential Loyalist,"200, N WALNUT ST",TAYLOR,-94.56044,40.88264
3830,WAL-MART 1435 / CRESTON,Potential Loyalist,806 LAUREL ST,UNION,-94.37278,41.04773
5756,CASEY'S GENERAL STORE #1577 / ALBIA,Big Spenders,122 N MAIN ST,MONROE,-92.80712,41.02876
5600,H & A MINI MART,Champions,145 UNIVERSITY AVE,POLK,-93.61924,41.6004
4817,CASEY'S GENERAL STORE #3217 / KNOXVILLE,Potential Loyalist,"1201, E MAIN ST",MARION,-93.08618,41.31897
4752,GASLAND / BURLINGTON,Champions,1003 SUMMER STREET,DES MOINES,-91.11484,40.79712
4419,KUM & GO #4 / LAMONI,Potential Loyalist,2091 E MAIN ST,DECATUR,-93.896684,40.623454
10042,ELKADER PRONTO MARKET / ELKADER,Need Attention,107 1ST STREET SW,CLAYTON,-91.40485,42.85344
5059,CASEY'S GENERAL STORE #1125 / HUMEST,Potential Loyalist,207 FRONT ST,WAYNE,-93.49942,40.85747
4720,CHARITON BP,Big Spenders,107 EAST GRACE,LUCAS,-93.29331,41.00525
5740,NEW STAR / KNOXVILLE,Potential Loyalist,901 WEST PLEASANT ST,MARION,-93.10786,41.32074
3910,RIVERSIDE CASINO AND RESORT,Big Spenders,3184 HIGHWAY 22,WASHINGTON,-91.53145,41.49637
2543,HY-VEE FOOD STORE #1 (1504) / OTTUMWA,Champions,1025 NORTH QUINCY AVE,WAPELLO,-92.43845,41.01581
4897,GASLAND #102 / BURLINGTON,Need Attention,1703 MT PLEASANT ST,DES MOINES,-91.12242,40.82001
2644,HY-VEE FORT DODGE WINE AND SPIRITS,Champions,1511 2ND AVE NORTH,WEBSTER,-94.17734,42.50829
3712,MONTE SPIRITS,Champions,109 N 4TH ST,POWESHIEK,-92.52364,41.58593
4448,KUM & GO #572 / URBANDALE,Potential Loyalist,4860 NW URBANDALE DR,POLK,-93.77088,41.64656
3698,INGERSOLL WINE MERCHANTS,Potential Loyalist,1300  50TH ST,POLK,-93.77112,41.59093
5757,CASEY'S GENERAL STORE #1651 / ALBIA,Big Spenders,1117 CLINTON ST,MONROE,-92.80911,41.01666
6101,BREW OIL #26 / POCAHONTAS,Champions,14 E ELM AVE,POCAHONTAS,-94.66769,42.7326
6345,ROUND WINDOW LIQUOR / KNOXVILLE,Big Spenders,701 WEST PLEASANT STREET,MARION,-93.10565,41.32074
2657,HY-VEE FOOD STORE / BEDFORD,Potential Loyalist,1604 BENT,TAYLOR,-94.72556,40.67626
3592,WAL-MART 0886 / FORT DODGE,Champions,3036 1ST AVE SOUTH,HARDIN,-94.15391,42.50531
6130,HIWAY 20 LIQUOR AND TOBACCO #1724 / FORT DODGE,Champions,1724 5TH AVE S,WEBSTER,-94.17382,42.50108
2506,HY-VEE #2 (1044) / BURLINGTON,Champions,3140 AGENCY,DES MOINES,-91.13664,40.81467
4271,FAREWAY STORES #827 / CENTERVILLE,Potential Loyalist,305 S 18TH ST,APPANOOSE,-92.86792,40.73085
5868,BROTHERS MARKET / BLOOMFIELD,Potential Loyalist,207 E LOCUST ST,DAVIS,-92.41284,40.75269
5157,KIMMES MANSON COUNTRY STORE #10,Potential Loyalist,208 MAIN ST,CALHOUN,-94.53453,42.51785
4898,FASTLAND LLC / BURLINGTON,Big Spenders,130 S ROOSEVELT AVE,DES MOINES,-91.14099,40.80822
2718,HY-VEE WAUKON DOLLAR FRESH,Potential Loyalist,819 11TH AVE SW,ALLAMAKEE,-91.48701,43.25662
2607,HY-VEE WINE AND SPIRITS / SHENANDOAH,Champions,520 SO FREMONT,PAGE,-95.3851,40.76162
4136,FAREWAY STORES #983 / GRIMES,Potential Loyalist,351 GATEWAY DR,POLK,-93.77819,41.69155
4375,KUM & GO #237 / GRIMES,Big Spenders,801 N 1ST ST,POLK,-93.78477,41.68838
5052,CASEY'S GENERAL STORE #3220 / GREENF,Potential Loyalist,"302, SE 6TH ST",ADAIR,-94.45326,41.30288
2566,HY-VEE FOOD STORE (1353) / KNOXVILLE,Champions,813 N LINCOLN STE 1,MARION,-93.10948,41.32519
2658,HY-VEE FOOD STORE / MOUNT AYR,Potential Loyalist,201 N FILLMORE ST,RINGGOLD,-94.23881,40.71574
3691,TARGET STORE T-1791 / URBANDALE,Potential Loyalist,11148 PLUM DR,POLK,-93.76943,41.64813
5041,CASEY'S GENERAL STORE #3309 / MONTEZ,Big Spenders,106 N FRONT ST,POWESHIEK,-92.52723,41.58598
4997,DOWNTOWN PANTRY,Champions,"218, 6TH AVE #101",POLK,-93.62452,41.58565
2669,HY-VEE / CORYDON,Potential Loyalist,"105, E JACKSON ST",WAYNE,-93.31788,40.75839
4319,FAREWAY STORES #703 / HUMBOLT,Big Spenders,1700 10TH AVENUE N,HUMBOLDT,-94.23376,42.73186
5373,SODES GREEN ACRE,Need Attention,7 GOETHE STREET SUITE B,CLAYTON,-91.09622,42.78291
5210,DING'S HONK'N HOLLER,Champions,"900, E  WASHINGTON  ST",PAGE,-95.02724,40.73922
4057,TEQUILA'S LIQUOR STORE,Champions,1434 DES MOINES ST STE 5,POLK,-93.59726,41.59526
5919,CASEY'S GENERAL STORE #2584  / OSSIAN,Potential Loyalist,200 W MAIN ST,WINNESHIEK,-91.76763,43.14661
4548,CASEY'S GENERAL STORE #2594 / WALKER,Potential Loyalist,401 GRANT ST,LINN,-91.78199,42.28391
4027,WAL-MART 1621 / CENTERVILLE,Potential Loyalist,23148 HWY 5,APPANOOSE,-92.86783,40.70871
2602,HY-VEE FOOD STORE / WEBSTER CITY,Champions,823  2ND ST,HAMILTON,-93.82549,42.46946
5726,EHLINGER'S VINTON EXPRESS,Potential Loyalist,310 K AVENUE SOUTH,BENTON,-92.03752,42.16832
5602,CASEY'S GENERAL STORE #2585 / DYERSVILLE,Need Attention,1402 9TH ST SE,DUBUQUE,-91.11427,42.47368
2655,HY-VEE FOOD STORE / CLARINDA,Potential Loyalist,1200 S 16TH ST,PAGE,-95.03784,40.727
4629,KWIK SHOP #541 / GLENWOOD,Potential Loyalist,309 N LOCUST ST,MILLS,-95.7449,41.05014
6045,KUM & GO #3156 / CLIVE,Potential Loyalist,15590 HICKMAN RD,POLK,-93.83292,41.61449
5478,CASEY'S GENERAL STORE #3587 / BURLINGTON,Big Spenders,1911 DES MOINES AVE,DES MOINES,-91.10807,40.82823
4273,SMOKIN' JOE'S #4 TOBACCO AND LIQUOR OUTLET,Potential Loyalist,2800 E UNIVERSITY AVE,POLK,-93.56207,41.60074
4291,FAREWAY STORES #597 / CRESTON,Champions,105 E ADAMS ST,UNION,-94.36134,41.05731
